PSTATABB,PNAME,LAT,LON,PLGENACL,PLGENAOL,PLGENAGS,PLGENANC,PLGENAHY,PLGENABM,PLGENAWI,PLGENASO,PLGENAGT,PLGENAOT
AK,7-Mile Ridge Wind Project,63.210689,-143.247156,,,,,,,,,,
AK,Agrium Kenai Nitrogen Operations,60.6732,-151.3784,,,,,,,,,,
AK,Alakanuk,62.6833,-164.6544,0,0,0,0,0,0,0,0,0,0
AK,Allison Creek Hydro,61.084444,-146.353333,0,0,0,0,"23,077",0,0,0,0,0
AK,Ambler,67.08798,-157.856719,0,"1,206",0,0,0,0,0,0,0,0
AK,Anchorage 1,61.2221,-149.8661,0,80,"28,857",0,0,0,0,0,0,0
AK,Angoon,57.499166,-134.58614,0,"1,653",0,0,0,0,0,0,0,0
AK,Aniak,61.580678,-159.535643,0,"2,174",0,0,0,0,0,0,0,0
AK,Annex Creek,58.3176,-134.101,0,0,0,0,"26,657",0,0,0,0,0
AK,Auke Bay,58.3875,-134.6446,0,-88,0,0,0,0,0,0,0,0
AK,Aurora Energy LLC Chena,64.847743,-147.735063,"177,819",0,0,0,0,0,0,0,0,0
AK,Barrow,71.292,-156.7786,0,2,"48,251",0,0,0,0,0,0,0
AK,Battery Energy Storage System,64.8167,-147.725,0,0,0,0,0,0,0,0,0,"-2,428"
AK,Beaver Falls,55.37975,-131.470269,0,0,0,0,"33,310",0,0,0,0,0
AK,Beluga,61.1861,-151.0356,0,0,"37,832",0,0,0,0,0,0,0
AK,Bernice Lake,60.6935,-151.3874,0,0,396,0,0,0,0,0,0,0
AK,Bethel,60.7897,-161.787778,0,"40,542",0,0,0,0,0,0,0,0
AK,Black Bear Lake,55.476472,-133.14772,0,0,0,0,"18,099",0,0,0,0,0
AK,Blue Lake Hydro,57.0516,-135.2297,0,0,0,0,"56,170",0,0,0,0,0
AK,Bradley Lake,59.77862,-150.94015,0,0,0,0,"404,479",0,0,0,0,0
AK,Brevig Mission,65.331716,-166.479506,0,"1,162",0,0,0,0,0,0,0,0
AK,Centennial,55.121433,-131.560267,0,"5,578",0,0,0,0,0,0,0,0
AK,Chester Lake,55.116879,-131.545879,0,0,0,0,"5,384",0,0,0,0,0
AK,Chevak,61.525297,-165.590152,0,"1,724",0,0,0,0,0,0,0,0
AK,Cooper Lake,60.392331,-149.665603,0,0,0,0,"59,832",0,0,0,0,0
AK,Craig (AK),55.47691,-133.14869,0,"2,349",0,0,0,0,0,0,0,0
AK,Delta Power,64.028056,-145.719444,0,-176,0,0,0,0,0,0,0,0
AK,Delta Wind Farm,64.013889,-145.596667,0,0,0,0,0,0,"4,498",0,0,0
AK,Dillingham,59.042914,-158.468597,0,"19,005",0,0,0,0,0,0,0,0
AK,Dutch Harbor,53.892459,-166.538185,0,"54,364",0,0,0,0,0,0,0,0
AK,Eielson AFB Central Heat & Power Plant,64.67141,-147.075988,"67,619",131,0,0,0,0,0,0,0,0
AK,Eklutna Generation Station,61.457778,-149.351389,0,0,"614,791",0,0,0,0,0,0,0
AK,Eklutna Hydro Project,61.475211,-149.15009,0,0,0,0,"168,115",0,0,0,0,0
AK,Elim,64.616558,-162.263717,0,"1,316",0,0,0,0,0,0,0,0
AK,Emmonak,62.777694,-164.531517,0,"5,347",0,0,0,0,0,0,0,0
AK,ESS Battery Microgrid,57.799167,-152.404167,0,0,0,0,0,0,0,0,0,-240
AK,Eva Creek Wind,64.058333,-148.9,0,0,0,0,0,0,"65,514",0,0,0
AK,Eyak Service Center BESS,60.54047,-145.74079,,,,,,,,,,
AK,Fairbanks,64.854171,-147.719351,0,"3,927",0,0,0,0,0,0,0,0
AK,False Island,55.48918,-133.1345,0,"1,575",0,0,0,0,0,0,0,0
AK,Fire Island Wind,61.13,-150.243611,0,0,0,0,0,0,"51,829",0,0,0
AK,Flywheel Energy Storage System Microgrid,57.780114,-152.443783,0,0,0,0,0,0,0,0,0,-342
AK,Fort Greely Power Plant,63.973572,-145.716581,0,70,0,0,0,0,0,0,0,0
AK,Galena Electric Utility,64.74417,-156.8736,0,"5,550",0,0,0,0,0,0,0,0
AK,Gambell,63.777058,-171.712439,0,"1,438",0,0,0,0,0,0,0,0
AK,George M Sullivan Generation Plant 2,61.229713,-149.716744,0,39,"843,289",0,0,0,0,0,0,0
AK,Glennallen,62.110415,-145.532529,0,"9,662",0,0,0,0,0,0,0,0
AK,Goat Lake Hydro,59.5357,-135.2123,0,0,0,0,"14,916",0,0,0,0,0
AK,Gold Creek,58.3107,-134.4174,0,7,0,0,"4,096",0,0,0,0,0
AK,Green Lake,56.986284,-135.12275,0,0,0,0,"52,270",0,0,0,0,0
AK,Gwitchyaa Zhee,66.566287,-145.253052,0,"2,398",0,0,0,0,0,0,0,0
AK,Haines,59.235931,-135.446228,0,"1,126",0,0,0,0,0,0,0,0
AK,Healy,63.8542,-148.95,"257,091","5,374",0,0,0,0,0,0,0,0
AK,Hiilangaay Hydro,55.216389,-132.603611,,,,,,,,,,
AK,Hoonah,58.106432,-135.43074,0,"4,336",0,0,0,0,0,0,0,0
AK,Hooper Bay,61.530858,-166.101944,0,"2,791",0,0,0,0,0,0,0,0
AK,Humpback Creek,60.612822,-145.679411,0,0,0,0,"3,267",0,0,0,0,0
AK,Hydaburg,55.204937,-132.821435,0,3,0,0,0,0,0,0,0,0
AK,Industrial Plant,58.367635,-134.60802,0,130,0,0,0,0,0,0,0,0
AK,International,61.168972,-149.911038,0,0,-752,0,0,0,0,0,0,0
AK,Jarvis Street,57.0497,-135.3128,0,-629,0,0,0,0,0,0,0,0
AK,JBER Landfill Gas Power Plant,61.286,-149.61,0,0,264,0,0,"42,684",0,0,0,0
AK,Kake,56.962983,-133.922557,0,"2,133",0,0,0,0,0,0,0,0
AK,Kasidaya Creek Hydro,59.4072,-135.3408,0,0,0,0,"10,606",0,0,0,0,0
AK,Kasigluk,60.8731,-162.5197,0,"2,507",0,0,0,0,0,0,0,0
AK,Ketchikan,55.344641,-131.633425,0,0,0,0,"15,741",0,0,0,0,0
AK,Kiana,66.973889,-160.428592,0,"1,632",0,0,0,0,0,0,0,0
AK,King Cove,55.061683,-162.3103,0,809,0,0,"3,728",0,0,0,0,0
AK,Kivalina,67.726644,-164.538447,0,"1,261",0,0,0,0,0,0,0,0
AK,Klawock,55.557778,-132.981389,,,,,,,,,,
AK,Klawock Power Generation Station,55.553197,-133.08535,0,"1,331",0,0,0,0,0,0,0,0
AK,Kodiak Microgrid,57.789956,-152.396982,0,74,0,0,0,0,0,0,0,0
AK,Kotlik,63.03215,-163.553106,0,"1,922",0,0,0,0,0,0,0,0
AK,Kotzebue,66.837778,-162.556944,0,"16,427",0,0,0,0,"4,960",0,0,-90
AK,Koyuk,64.932089,-161.167103,0,"1,291",0,0,0,0,0,0,0,0
AK,Lake Dorothy Hydroelectric Project,58.2325,-134.0533,0,0,0,0,"81,558",0,0,0,0,0
AK,Lemon Creek,58.3536,-134.4953,0,-695,0,0,0,0,0,0,0,0
AK,Mahoney Lake Hydroelectric,55.419444,-131.537778,,,,,,,,,,
AK,Marshall,61.878186,-162.085147,0,"1,466",0,0,0,0,0,0,0,0
AK,McGrath,62.95699,-155.594997,0,"2,111",0,0,0,0,0,0,0,0
AK,Mountain Village,62.085569,-163.729072,0,"2,724",0,0,0,0,0,0,0,0
AK,Naknek,58.730417,-157.007222,0,"24,329",0,0,0,0,0,0,0,0
AK,New Stuyahok,59.448358,-157.325528,0,"1,803",0,0,0,0,0,0,0,0
AK,Newhalen,59.899054,-154.698735,0,61,0,0,"3,263",0,0,0,0,0
AK,Nikiski Co-Generation,60.676539,-151.377713,0,0,"404,744",0,0,0,0,0,0,0
AK,Noatak,67.570931,-162.965728,0,"1,898",0,0,0,0,0,0,0,0
AK,Noorvik,66.834519,-161.038717,0,"1,972",0,0,0,0,0,0,0,0
AK,North Pole,64.7356,-147.3481,0,"369,250",0,0,0,0,0,0,0,0
AK,Northway,62.9617,-141.9372,0,"1,102",0,0,0,0,0,0,0,0
AK,NSB Anaktuvuk Pass,68.13795,-151.741017,0,"3,804",0,0,0,0,0,0,0,0
AK,NSB Atqasuk Utility,70.4826,-157.4252,0,"2,965",0,0,0,0,0,0,0,0
AK,NSB Kaktovik Utility,70.125617,-143.619033,0,"4,449",0,0,0,0,0,0,0,0
AK,NSB Nuiqsut Utility,70.220565,-150.993492,0,926,"5,854",0,0,0,0,0,0,0
AK,NSB Point Hope Utility,68.348424,-166.737211,0,"6,512",0,0,0,0,0,0,0,0
AK,NSB Point Lay Utility,69.740833,-163.005833,0,"4,032",0,0,0,0,0,0,0,0
AK,NSB Wainwright Utility,70.642877,-160.020461,0,"6,947",0,0,0,0,0,0,0,0
AK,Nunapitchuk,60.89588,-162.459756,,,,,,,,,,
AK,Nymans Plant Microgrid,57.731608,-152.507044,0,0,0,0,0,0,0,0,0,0
AK,Orca,60.555889,-145.752983,0,"7,021",0,0,0,0,0,0,0,0
AK,Pelican,57.957197,-136.220095,0,162,0,0,"1,147",0,0,0,0,0
AK,Petersburg,56.81104,-132.957091,0,413,0,0,"8,906",0,0,0,0,0
AK,Pillar Mountain Wind Project Microgrid,57.7869,-152.4406,0,0,0,0,0,0,"26,170",0,0,0
AK,Pilot Station,61.936456,-162.880706,0,"1,802",0,0,0,0,0,0,0,0
AK,Port Lions Microgrid,57.864775,-152.855441,,,,,,,,,,
AK,Power Creek,60.588686,-145.604539,0,0,0,0,"15,171",0,0,0,0,0
AK,Purple Lake,55.091263,-131.544978,0,0,0,0,"8,157",0,0,0,0,0
AK,Quinhagak,59.747436,-161.910647,0,"1,591",0,0,0,0,0,0,0,0
AK,S W Bailey,55.357397,-131.69696,0,"18,614",0,0,0,0,0,0,0,0
AK,Salmon Creek 1,58.3269,-134.4631,0,0,0,0,"24,389",0,0,0,0,0
AK,Savoonga,63.695267,-170.475661,0,"2,095",0,0,0,0,0,0,0,0
AK,Scammon Bay,61.843036,-165.581497,0,"1,641",0,0,0,0,0,0,0,0
AK,Selawik,66.606778,-160.014808,0,"2,685",0,0,0,0,0,0,0,0
AK,Seldovia,59.439542,-151.713439,0,85,0,0,0,0,0,0,0,0
AK,Seward (AK),60.130922,-149.43501,0,144,0,0,0,0,0,0,0,0
AK,Shishmaref,66.255072,-166.073589,0,"1,590",0,0,0,0,0,0,0,0
AK,Shungnak,66.888114,-157.140206,0,"1,583",0,0,0,0,0,0,0,0
AK,Silvis,55.381402,-131.517758,0,0,0,0,"9,221",0,0,0,0,0
AK,Skagway,59.4545,-135.3131,0,-37,0,0,"1,988",0,0,0,0,0
AK,Slana Generating Station,62.592756,-143.588869,0,"1,336",0,0,0,0,0,0,0,0
AK,Snake River,64.505331,-165.429814,0,"30,191",0,0,0,0,"2,044",0,0,0
AK,Snettisham,58.1415,-133.737,0,0,0,0,"259,856",0,0,0,0,0
AK,Soldotna,60.499444,-150.997222,0,0,"23,756",0,0,0,0,0,0,0
AK,Solomon Gulch,61.0828,-146.3033,0,0,0,0,"42,087",0,0,0,0,0
AK,South Fork,55.563333,-132.891111,0,0,0,0,"4,146",0,0,0,0,0
AK,Southcentral Power Project,61.167417,-149.905304,0,0,"815,365",0,0,0,0,0,0,0
AK,St Marys IC,62.051525,-163.172567,0,"3,024",0,0,0,0,0,0,0,0
AK,St. Michael,63.4775,-162.0383,,,,,,,,,,
AK,Stebbins,63.521047,-162.286322,0,"3,462",0,0,0,0,0,0,0,0
AK,Swampy Acres,57.77556,-152.48028,0,0,0,0,0,0,0,0,0,0
AK,Swan Lake,55.615208,-131.356111,0,0,0,0,"58,416",0,0,0,0,0
AK,Sweetheart Lake Hydroelectric Facility,57.9449,-133.6867,,,,,,,,,,
AK,Terror Lake Microgrid,57.6861,-152.895,0,0,0,0,"121,969",0,0,0,0,0
AK,Tesoro Kenai Cogeneration Plant,60.677,-151.3815,0,0,"64,727",0,0,0,0,0,0,0
AK,Thorne Bay Plant,55.68586,-132.52892,0,77,0,0,0,0,0,0,0,0
AK,TNSG North Plant,70.235278,-148.383611,0,0,"61,008",0,0,0,0,0,0,0
AK,TNSG South Plant,70.2,-148.466667,0,0,-480,0,0,0,0,0,0,0
AK,Togiak,59.059744,-160.380278,0,"3,017",0,0,0,0,0,0,0,0
AK,Tok,63.33552,-142.99997,0,"9,185",0,0,0,0,0,0,0,0
AK,Toksook Bay,60.530142,-165.108575,0,"2,886",0,0,0,0,0,0,0,0
AK,Tyee Lake Hydroelectric Facility,56.216403,-131.504344,0,0,0,0,"117,206",0,0,0,0,0
AK,Unalakleet,63.876789,-160.790414,0,"3,298",0,0,0,0,0,0,0,0
AK,Unalaska Power Module,53.863993,-166.512591,0,201,0,0,0,0,0,0,0,0
AK,Unisea G 2,53.8796,-166.5532,0,"27,726",0,0,0,"2,790",0,0,0,0
AK,University of Alaska Fairbanks,64.854171,-147.822075,"35,858","5,780",0,0,0,0,0,0,0,0
AK,Upper Kalskag,61.526858,-160.348128,0,"1,531",0,0,0,0,0,0,0,0
AK,Utility Plants Section,64.825601,-147.648627,"90,177",0,0,0,0,0,0,0,0,0
AK,Valdez,61.1303,-146.3647,0,888,0,0,0,0,0,0,0,0
AK,Valdez Cogen,61.0839,-146.2529,0,"16,993",0,0,0,0,0,0,0,0
AK,Viking,55.540708,-133.102344,0,0,0,0,0,0,0,0,0,0
AK,Westward Seafoods,53.858508,-166.55288,0,"11,797",0,0,0,0,0,0,0,0
AK,Whitman,55.328056,-131.530833,0,0,0,0,"6,998",0,0,0,0,0
AK,Wrangell,56.460976,-132.379439,0,520,0,0,0,0,0,0,0,0
AK,Yakutat,59.544553,-139.724306,0,"5,711",0,0,0,0,0,0,0,0
AL,ABC Coke,33.582793,-86.779866,0,0,486,0,0,0,0,0,0,"4,804"
AL,Alabama Pine Pulp,31.5825,-87.4889,0,235,"19,718",0,0,"393,127",0,0,0,0
AL,Alabama River Pulp,31.5825,-87.4889,0,120,"27,886",0,0,"280,057",0,0,0,0
AL,Albertville,34.363389,-86.223889,0,0,0,0,0,0,0,0,0,0
AL,AMEA Sylacauga Plant,33.1661,-86.2825,0,0,"34,570",0,0,0,0,0,0,0
AL,ANAD Solar Array,33.626728,-85.969481,0,0,0,0,0,0,0,"17,168",0,0
AL,APC1,,,,,,,,,,,,
AL,APC2,,,,,,,,,,,,
AL,APC3,,,,,,,,,,,,
AL,Bankhead Dam,33.458665,-87.356823,0,0,0,0,-392,0,0,0,0,0
AL,Barry,31.0069,-88.0103,"3,634,297",0,"6,830,619",0,0,0,0,0,0,0
AL,Bartletts Ferry,32.661976,-85.091552,0,0,0,0,"492,524",0,0,0,0,0
AL,Bellefonte,34.7092,-85.9278,,,,,,,,,,
AL,Boise Cascade Pulp & Paper Mill,31.4894,-87.8989,0,144,"45,664",0,0,"76,527",0,0,0,0
AL,Browns Ferry,34.7042,-87.1189,0,0,0,"25,397,781",0,0,0,0,0,0
AL,Calhoun Energy Center,33.5883,-85.9731,0,"28,596","167,988",0,0,0,0,0,0,0
AL,Charles R Lowman,31.488019,-87.910747,"1,245,578","11,064",0,0,0,0,0,0,0,0
AL,Colbert,34.7439,-87.8486,0,0,"68,000",0,0,0,0,0,0,0
AL,Crestwood Dothan,31.262356,-85.402737,0,773,0,0,0,0,0,0,0,0
AL,"Cumblerland Land Holdings, LLC",34.94974,-86.868053,0,0,0,0,0,0,0,76,0,0
AL,Decatur Energy Center,34.6292,-87.0214,0,0,"2,702,900",0,0,0,0,0,0,0
AL,Decatur-Morgan Co LFG Recovery Project,34.623611,-87.101111,0,0,0,0,0,"12,556",0,0,0,0
AL,District 100 Transco Gas Pipe Line,32.668889,-86.72,,,,,,,,,,
AL,E B Harris Generating Plant,32.381352,-86.574366,0,0,"5,865,446",0,0,0,0,0,0,0
AL,E C Gaston,33.244211,-86.458056,"2,851,865",176,"3,235,213",0,0,0,0,0,0,0
AL,ExxonMobil Mobile Bay Onshore,30.43203,-88.18241,0,0,"88,024",0,0,0,0,0,0,0
AL,Fort Rucker Solar Array,31.331148,-85.73019,0,0,0,0,0,0,0,"13,376",0,0
AL,Gadsden,34.0128,-85.9708,0,0,"188,877",0,0,0,0,0,0,0
AL,Gantt,31.4033,-86.479469,0,0,0,0,904,0,0,0,0,0
AL,Georgia-Pacific Brewton Mill,31.077,-87.1116,0,0,"223,712",0,0,"231,594",0,0,0,0
AL,Georgia-Pacific Consr Prods LP-Naheola,32.2268,-88.0252,"43,776","2,559","79,788",0,0,"166,926",0,0,0,0
AL,Goat Rock,32.60965,-85.0805,0,0,0,0,"175,597",0,0,0,0,0
AL,Gorgas,33.644344,-87.196486,"5,490,646","7,242",0,0,0,0,0,0,0,0
AL,Greene County,32.6017,-87.7811,0,"10,826","1,162,265",0,0,0,0,0,0,0
AL,Guntersville,34.421272,-86.393931,0,0,0,0,"733,655",0,0,0,0,0
AL,H Neely Henry Dam,33.7845,-86.0524,0,0,0,0,"252,836",0,0,0,0,0
AL,Harris Dam,33.258281,-85.616047,0,0,0,0,"167,486",0,0,0,0,0
AL,Hillabee Energy Center,33.000669,-85.903278,0,0,"4,376,115",0,0,0,0,0,0,0
AL,Hog Bayou Energy Center,30.7478,-88.0575,0,0,"1,137,089",0,0,0,0,0,0,0
AL,Holt Dam,33.2553,-87.4495,0,0,0,0,"168,817",0,0,0,0,0
AL,International Paper Pine Hill Mill,31.9698,-87.4806,76,"1,213","47,966",0,0,"426,123",0,0,0,0
AL,International Paper-Prattville Mill,32.4187,-86.4718,0,"2,331","121,248",0,0,"435,448",0,0,0,0
AL,International Paper-Riverdale Mill,32.426016,-86.870912,0,0,"373,689",0,0,"231,518",0,0,0,0
AL,James H Miller Jr,33.6319,-87.0597,"18,000,241",0,"324,943",0,0,0,0,0,0,0
AL,Jones Bluff,32.324242,-86.784319,0,0,0,0,"286,413",0,0,0,0,0
AL,Jordan Dam,32.6189,-86.2548,0,0,0,0,"435,727",0,0,0,0,0
AL,Joseph M Farley,31.2231,-85.1116,0,0,0,"14,065,046",0,0,0,0,0,0
AL,Kimberly Clark Mobile - CHP Plant,30.737741,-88.04977,,,,,,,,,,
AL,LaFayette Solar Farm,32.876313,-85.38821,0,0,0,0,0,0,0,"160,946",0,0
AL,Langdale,32.813836,-85.167786,0,0,0,0,0,0,0,0,0,0
AL,Lay Dam,32.9633,-86.5187,0,0,0,0,"685,072",0,0,0,0,0
AL,Lewis Smith Dam,33.9406,-87.1077,0,0,0,0,"237,885",0,0,0,0,0
AL,Logan Martin Dam,33.425878,-86.337547,0,0,0,0,"445,383",0,0,0,0,0
AL,Martin Dam,32.680394,-85.911442,0,0,0,0,"348,530",0,0,0,0,0
AL,McIntosh (7063),31.2546,-88.0299,0,0,"432,523",0,0,0,0,0,0,0
AL,McWilliams,31.400255,-86.476449,0,51,"3,957,078",0,0,0,0,0,0,0
AL,Millers Ferry,32.100881,-87.399767,0,0,0,0,"287,505",0,0,0,0,0
AL,Mitchell Dam,32.806025,-86.444892,0,0,0,0,"543,305",0,0,0,0,0
AL,Mobile Energy Services LLC,30.736487,-88.051643,0,0,"188,964",0,0,"142,486",0,0,0,0
AL,Morgan Energy Center,34.6397,-87.0639,0,0,"4,532,851",0,0,0,0,0,0,0
AL,Muscle Shoals,34.76973,-87.90454,,,,,,,,,,
AL,Pinckard Solar,31.297,-85.536,,,,,,,,,,
AL,Plant H. Allen Franklin,32.6078,-85.0975,0,0,"12,248,562",0,0,0,0,0,0,0
AL,Point A,31.361146,-86.518307,0,0,0,0,"13,880",0,0,0,0,0
AL,Redstone Arsenal,34.610987,-86.611551,0,0,0,0,0,0,0,"17,670",0,-49
AL,"River Bend Solar, LLC",34.831511,-87.842204,0,0,0,0,0,0,0,"148,016",0,0
AL,Rock-Tenn Mill,32.4541,-87.9759,0,373,"6,814",0,0,"284,874",0,0,0,0
AL,SABIC Innovative Plastics - Burkville,32.310226,-86.52542,0,0,"571,146",0,0,0,0,0,0,0
AL,Sand Valley Power Station,34.343875,-85.866103,0,0,0,0,0,"25,116",0,0,0,0
AL,Sloss Industries Corp,33.568164,-86.79873,0,0,0,0,0,0,0,0,0,0
AL,Tenaska Central Alabama Gen Station,32.6497,-86.74,0,0,"4,116,919",0,0,0,0,0,0,0
AL,Tenaska Lindsay Hill Generating Station,32.6514,-86.7386,0,0,"1,882,859",0,0,0,0,0,0,0
AL,Theodore Cogeneration,30.525445,-88.128477,0,0,"1,325,015",0,0,0,0,0,0,0
AL,Thurlow Dam,32.535436,-85.887614,0,0,0,0,"209,097",0,0,0,0,0
AL,Tom Bevill Lock and Dam Hydroelectric,33.210892,-88.289611,,,,,,,,,,
AL,U S Alliance Coosa Pines,33.328107,-86.356825,0,0,"42,280",0,0,"111,115",0,0,0,0
AL,Walter Bouldin Dam,32.583889,-86.283056,0,0,0,0,"687,921",0,0,0,0,0
AL,Walton Discover Power Facility,32.54098,-85.038879,0,0,"14,624",0,0,0,0,0,0,0
AL,Washington County Cogen (Olin),31.2504,-88.0156,0,0,"809,934",0,0,0,0,0,0,0
AL,Weiss Dam,34.172142,-85.753806,0,0,0,0,"280,944",0,0,0,0,0
AL,Westervelt Moundville Cogen,32.960714,-87.655419,0,0,0,0,0,"37,819",0,0,0,0
AL,WestRock Coated Board,32.1761,-85.0272,0,0,"205,037",0,0,"591,093",0,0,0,0
AL,Wheeler Dam,34.8069,-87.3819,0,0,0,0,"1,623,825",0,0,0,0,0
AL,Widows Creek,34.883022,-85.755253,,,,,,,,,,
AL,Wilson Dam,34.79782,-87.62537,0,0,0,0,"2,923,233",0,0,0,0,0
AL,Yates Dam,32.5743,-85.8901,0,0,0,0,"142,992",0,0,0,0,0
AL,Yellowhammer Gas Plant,30.403538,-88.12833,0,0,"17,911",0,0,0,0,0,0,0
AR,Archer Daniels Midland Little Rock,34.7,-92.199722,,,,,,,,,,
AR,Arkansas Nuclear One,35.311,-93.2351,0,0,0,"12,720,818",0,0,0,0,0,0
AR,Ashdown,33.6417,-94.1083,"45,505",0,"71,072",0,0,"533,633",0,0,0,"5,087"
AR,Beaver Dam,36.421507,-93.847373,0,0,0,0,"119,380",0,0,0,0,0
AR,Blakely Mountain,34.570984,-93.194425,0,0,0,0,"182,961",0,0,0,0,0
AR,Bull Shoals,36.3635,-92.5763,0,0,0,0,"622,630",0,0,0,0,0
AR,Carl Bailey,35.260102,-91.363426,0,0,"14,199",0,0,0,0,0,0,0
AR,Carpenter,34.4425,-93.0262,0,0,0,0,"124,077",0,0,0,0,0
AR,Cecil Lynch,34.7535,-92.1987,,,,,,,,,,
AR,City Water & Light - City of Jonesboro,35.848561,-90.725377,0,7,"49,973",0,0,0,0,0,0,0
AR,Clearwater Paper APP CB,33.7061,-91.2371,0,0,"32,668",0,0,"81,877",0,0,0,0
AR,Columbia Flooring Melbourne,36.060514,-91.919802,0,0,0,0,0,"5,631",0,0,0,0
AR,Dam 2,33.986501,-91.315788,0,0,0,0,"289,523",0,0,0,0,0
AR,Dardanelle,35.2503,-93.1686,0,0,0,0,"629,375",0,0,0,0,0
AR,Degray,34.211913,-93.110963,0,0,0,0,"77,354",0,0,0,0,0
AR,Dell Power Plant,35.8619,-90.0253,0,0,"2,028,650",0,0,0,0,0,0,0
AR,Elkins Generating Center,35.9714,-94.0014,0,0,"5,359",0,0,0,0,0,0,0
AR,Ellis Hydro,35.351361,-94.294349,0,0,0,0,"117,406",0,0,0,0,0
AR,FECC Solar Benton,34.638429,-92.578347,0,0,0,0,0,0,0,"1,540",0,0
AR,Flint Creek Power Plant,36.2561,-94.5241,"2,663,090","6,658",0,0,0,0,0,0,0,0
AR,Fourche Creek Wastewater,34.6968,-92.165,0,0,114,0,0,"5,576",0,0,0,0
AR,Fulton,33.6094,-93.7924,0,0,"103,733",0,0,0,0,0,0,0
AR,Genova Arkansas I LLC,36.186111,-94.284166,,,,,,,,,,
AR,Georgia-Pacific Crossett LLC,33.1421,-91.975,0,"3,073","163,203",0,0,"306,405",0,0,0,0
AR,Greers Ferry Lake,35.5207,-91.9953,0,0,0,0,"200,955",0,0,0,0,0
AR,Hamilton Moses,34.9806,-90.8722,,,,,,,,,,
AR,Harry D. Mattison Power Plant,36.1855,-94.2841,0,0,"48,955",0,0,0,0,0,0,0
AR,Harvey Couch,33.3592,-93.4649,,,,,,,,,,
AR,Hot Spring Energy Facility,34.29759,-92.868344,0,0,"3,433,630",0,0,0,0,0,0,0
AR,Independence,35.678442,-91.408761,"9,676,312","6,862",0,0,0,0,0,0,0,0
AR,John W. Turk Jr. Power Plant,33.649722,-93.811944,"4,175,510",0,"12,470",0,0,0,0,0,0,0
AR,Lake Catherine,34.4341,-92.9049,0,0,"289,084",0,0,0,0,0,0,0
AR,Lee Creek Water Treatment Facility,35.484488,-94.392858,0,0,0,0,0,0,0,0,0,0
AR,Mabelvale,34.635997,-92.409602,,,,,,,,,,
AR,Magnet Cove Generating Station,34.4297,-92.8317,0,0,"1,834,885",0,0,0,0,0,0,0
AR,McClellan,33.5648,-92.7917,0,0,"61,046",0,0,0,0,0,0,0
AR,Municipal Light,36.3858,-90.1867,0,0,0,0,0,0,0,0,0,0
AR,Murray,34.7956,-92.3569,0,0,0,0,"39,862",0,0,0,0,0
AR,Narrows (AR),34.148427,-93.715168,0,0,0,0,"20,641",0,0,0,0,0
AR,Noland Wastewater Treatment Plant,36.082301,-94.067149,,,,,,,,,,
AR,Norfork,36.2491,-92.2401,0,0,0,0,"159,631",0,0,0,0,0
AR,Osceola (AR),35.6893,-89.994,0,0,0,0,0,0,0,0,0,0
AR,Oswald Generating Station,34.5923,-92.2166,0,0,"522,540",0,0,0,0,0,0,0
AR,Ozark,35.4693,-93.8175,0,0,0,0,"214,488",0,0,0,0,0
AR,Ozarks Natural Energy Community Solar,36.164296,-94.082269,0,0,0,0,0,0,0,"1,519",0,0
AR,Paragould,36.060556,-90.521389,,,,,,,,,,
AR,Paragould Reciprocating,36.0242,-90.5094,0,0,512,0,0,0,0,0,0,0
AR,Paragould Turbine,36.024272,-90.509229,0,0,47,0,0,0,0,0,0,0
AR,Pine Bluff Energy Center,34.2181,-91.9025,0,0,"1,305,210",0,0,0,0,0,0,0
AR,Pine Bluff Mill,34.221213,-91.907365,0,0,"30,422",0,0,"363,194",0,0,0,0
AR,Plum Point Energy Station,35.6644,-89.9489,"5,196,709","5,925",0,0,0,0,0,0,0,0
AR,Remmel,34.4272,-92.8941,0,0,0,0,"38,312",0,0,0,0,0
AR,Riceland Foods Cogeneration Plant,34.5136,-91.5331,0,0,0,0,0,"20,299",0,0,0,0
AR,Robert E Ritchie,34.4629,-90.5987,,,,,,,,,,
AR,Scenic Hill Solar III,35.46715,-93.51517,0,0,0,0,0,0,0,"10,497",0,0
AR,Searcy Solar,35.233,-91.69,,,,,,,,,,
AR,SR Camden,33.631538,-92.703611,0,0,0,0,0,0,0,"26,923",0,0
AR,Stuttgart Solar,34.439722,-91.44,0,0,0,0,0,0,0,"162,934",0,0
AR,Thomas Fitzhugh,35.462382,-93.804926,0,0,"272,862",0,0,0,0,0,0,0
AR,Two Pine Landfill Gas Recovery,34.8332,-92.157103,0,0,0,0,0,"15,892",0,0,0,0
AR,UA Central Utility Plant,36.066336,-94.172254,0,0,"37,894",0,0,0,0,0,0,0
AR,Union Power Station,33.296146,-92.589364,0,0,"10,305,177",0,0,0,0,0,0,0
AR,Waste Management Eco Vista LFGTE,36.140849,-94.259713,0,0,0,0,0,"33,183",0,0,0,0
AR,Westside Wastewater Treatment Plant,36.04135,-94.140079,,,,,,,,,,
AR,Whillock,35.127591,-92.790273,0,0,0,0,"162,795",0,0,0,0,0
AR,White Bluff,34.4228,-92.1406,"8,238,975","12,992",0,0,0,0,0,0,0,0
AR,White River Lock and Dam 1,35.757401,-91.636887,0,0,0,0,"16,525",0,0,0,0,0
AR,White River Lock and Dam 2,35.744036,-91.765418,0,0,0,0,"15,785",0,0,0,0,0
AR,White River Lock and Dam 3,35.84361,-91.850521,0,0,0,0,"17,320",0,0,0,0,0
AZ,Actus Lend Lease DMAFB,32.1825,-110.863333,0,0,0,0,0,0,0,"4,023",0,0
AZ,AES ES GILBERT,33.446804,-111.956261,,,,,,,,,,
AZ,Agua Caliente Solar Project,32.9774,-113.4945,0,0,0,0,0,0,0,"723,324",0,0
AZ,Agua Fria Generating Station,33.5561,-112.2153,0,-19,"148,350",0,0,0,0,281,0,0
AZ,Amphitheater High School Solar,32.269,-110.975,0,0,0,0,0,0,0,"2,254",0,0
AZ,Apache Solar 1,32.068141,-109.890379,0,0,0,0,0,0,0,"49,911",0,0
AZ,Apache Station,32.0603,-109.8931,"623,300",0,"1,150,043",0,0,0,0,0,0,0
AZ,APS Saguaro Power Plant,32.5517,-111.3,0,0,"109,365",0,0,0,0,0,0,0
AZ,APS West Phoenix Power Plant,33.4417,-112.1583,0,0,"2,984,982",0,0,0,0,0,0,0
AZ,Arizona State University CHP,33.417222,-111.928333,0,0,"49,149",0,0,0,0,0,0,0
AZ,Arizona Western College PV,32.687778,-114.49611,0,0,0,0,0,0,0,"8,942",0,0
AZ,Arlington Valley Energy Facility,33.3417,-112.8897,0,0,"2,120,507",0,0,0,0,0,0,0
AZ,Arlington Valley Solar Energy I,33.321667,-112.880555,,,,,,,,,,
AZ,Arlington Valley Solar Energy II,33.305,-112.833888,0,0,0,0,0,0,0,"335,124",0,0
AZ,Arzon Solar UASTP Solar Power Station,32.108147,-110.824662,0,0,0,0,0,0,0,96,0,0
AZ,Avalon Solar,32.001389,-110.960556,0,0,0,0,0,0,0,"77,069",0,0
AZ,Avalon Solar II,32.000854,-110.958427,0,0,0,0,0,0,0,"43,262",0,0
AZ,Avra Valley Solar,32.371667,-111.282777,0,0,0,0,0,0,0,"72,166",0,0
AZ,AZ State University - Tempe Campus Solar,33.424279,-111.92822,,,,,,,,,,
AZ,Badger 1,33.498003,-112.813458,0,0,0,0,0,0,0,"40,448",0,0
AZ,Black Mountain Generating Station,35.0361,-114.1594,0,0,"79,795",0,0,0,0,0,0,0
AZ,Black Mountain Solar LLC,35.0227,-114.1627,0,0,0,0,0,0,0,"21,080",0,0
AZ,Bonnybrooke PV,33.053,-111.34,0,0,0,0,0,0,0,"138,774",0,0
AZ,"Buckeye Generation Center, LLC",33.230833,-112.626389,,,,,,,,,,
AZ,Buckeye Union HS District 201,33.419167,-112.576111,0,0,0,0,0,0,0,"6,972",0,0
AZ,Canyon Del Oro High School Solar,32.374,-110.974,0,0,0,0,0,0,0,"2,919",0,0
AZ,Childs,34.351111,-111.700556,,,,,,,,,,
AZ,Chino Solar Valley,34.71843,-112.42899,0,0,0,0,0,0,0,"44,578",0,0
AZ,Cholla,34.9394,-110.3033,"3,612,301","2,588",117,0,0,0,0,0,0,0
AZ,Cogeneration 1,32.229922,-110.952797,0,0,"56,089",0,0,0,0,0,0,0
AZ,Cogeneration 2,32.240833,-110.948333,0,0,"35,413",0,0,0,0,0,0,0
AZ,Cogenra - TEP,32.101944,-110.813333,0,0,0,0,0,0,0,"1,920",0,0
AZ,"Concord Blue Eagar, LLC",34.11494,-109.37503,,,,,,,,,,
AZ,Coolidge Generating Station,32.917399,-111.503327,0,0,"155,334",0,0,0,0,0,0,0
AZ,Copper Crossing Energy Center,33.15512,-111.483636,,,,,,,,,,
AZ,Copper Crossing Solar LLC,33.160601,-111.484011,0,0,0,0,0,0,0,"50,089",0,0
AZ,Coronado Generating Station,34.5789,-109.2708,"3,591,093","6,779",0,0,0,0,0,0,0,0
AZ,Cotton Center Solar,33.034722,-112.661667,0,0,0,0,0,0,0,"36,792",0,0
AZ,Crosscut,33.439375,-111.946052,,,,,,,,,,
AZ,Davis Dam,35.197044,-114.570669,0,0,0,0,"1,103,311",0,0,0,0,0
AZ,Davis Monthan AFB (AZ) West Airfield,32.17356,-110.899734,0,0,0,0,0,0,0,"2,536",0,0
AZ,De Moss Petrie Generating Station,32.252273,-110.992148,0,0,"5,154",0,0,0,0,0,0,0
AZ,Desert Basin Generating Station,32.9042,-111.7889,0,0,"2,335,543",0,0,0,0,0,0,0
AZ,Dolan Springs,35.61,-114.26,,,,,,,,,,
AZ,Douglas,31.364122,-109.5538,0,141,0,0,0,0,0,0,0,0
AZ,Dry Lake Solar,34.513333,-110.078333,,,,,,,,,,
AZ,Dry Lake Wind II LLC,34.6062,-110.1734,0,0,0,0,0,0,"113,527",0,0,0
AZ,Dry Lake Wind LLC,34.6596,-110.2842,0,0,0,0,0,0,"110,551",0,0,0
AZ,East Line Solar,32.84703,-111.565072,,,,,,,,,,
AZ,Estrella Mountain PV,33.409803,-112.340297,0,0,0,0,0,0,0,0,0,0
AZ,FirstEnergy,33.935833,-113.555,,,,,,,,,,
AZ,Foothills Solar Plant,32.64856,-114.428741,0,0,0,0,0,0,0,"93,025",0,0
AZ,Fort Huachuca Solar PV Project,31.555278,-110.35,0,0,0,0,0,0,0,"35,988",0,0
AZ,"Gato Montes Solar, LLC",32.102778,-110.819722,0,0,0,0,0,0,0,"8,900",0,0
AZ,Gila Bend,32.940833,-112.881389,0,0,0,0,0,0,0,"96,214",0,0
AZ,Gila Bend Power Generation Station,32.985977,-112.811009,,,,,,,,,,
AZ,Gila River Power Block 2,32.975,-112.694444,0,0,"2,248,005",0,0,0,0,0,0,0
AZ,Gila River Power Station,32.975,-112.6944,0,0,"6,530,008",0,0,0,0,0,0,0
AZ,"Gilbert Solar Facility I, LLC",33.355862,-111.802355,0,0,0,0,0,0,0,"4,076",0,0
AZ,Gillespie 1,33.026389,-112.665833,0,0,0,0,0,0,0,"41,594",0,0
AZ,Glen Canyon Dam,36.936614,-111.483872,0,0,0,0,"3,958,503",0,0,0,0,0
AZ,Glendale Energy Power Plant,33.540324,-112.306361,0,0,0,0,0,"14,228",0,0,0,0
AZ,Gray Hawk Solar,35.3635,-113.8978,0,0,0,0,0,0,0,"76,076",0,0
AZ,Griffith Energy Project,35.054029,-114.133272,0,0,"2,071,721",0,0,0,0,0,0,0
AZ,Headgate Rock,34.168264,-114.277356,0,0,0,0,"67,925",0,0,0,0,0
AZ,Hoover Dam (AZ),36.01551,-114.738006,0,0,0,0,"1,726,548",0,0,0,0,0
AZ,Horse Mesa,33.5907,-111.344,0,0,0,0,"50,123",0,0,0,0,0
AZ,Hyder II,33.027,-113.3489,0,0,0,0,0,0,0,"37,062",0,0
AZ,Hyder Solar,33.02566,-113.34397,0,0,0,0,0,0,0,"37,780",0,0
AZ,Intel - Ocotillo Campus Solar,33.243261,-111.892354,0,0,0,0,0,0,0,"4,722",0,0
AZ,IRC Generator Facility,36.9708,-112.5264,0,6,0,0,0,0,0,0,0,0
AZ,Iron Horse Battery Storage,32.098492,-110.819119,0,0,0,0,0,0,0,"3,153",0,-370
AZ,Irving,34.402222,-111.617222,,,,,,,,,,
AZ,Irvington Generating Station,32.16,-110.9047,0,0,"1,412,423",0,0,0,0,0,0,0
AZ,Jacobson 5 MW Solar,35.304528,-114.01183,0,0,0,0,0,0,0,"7,790",0,0
AZ,Jewish Community Center PV,33.603056,-111.924722,0,0,0,0,0,0,0,"2,194",0,0
AZ,Kayenta Solar Project,36.771944,-110.263889,0,0,0,0,0,0,0,"74,615",0,0
AZ,Kingman 1,35.145833,-114.0675,0,0,0,0,0,0,"24,455",0,0,0
AZ,Kyrene Generating Station,33.3556,-111.9353,0,0,"853,210",0,0,0,0,0,0,0
AZ,La Paz Solar Tower,33.917222,-114.2675,,,,,,,,,,
AZ,La Senita,35.241675,-114.004591,0,0,0,0,0,0,0,"2,188",0,0
AZ,Lake Pleasant WTP,33.820556,-112.24,0,0,0,0,0,0,0,"14,787",0,0
AZ,Luke Solar,33.526111,-112.37944,,,,,,,,,,
AZ,Macys Goodyear,33.409063,-112.414596,0,0,0,0,0,0,0,"5,277",0,0
AZ,Mesa Solar Array,33.346944,-111.603056,,,,,,,,,,
AZ,Mesquite Generating Station,33.345,-112.864167,0,0,"5,792,067",0,0,0,0,0,0,0
AZ,Mesquite Solar 1,33.341833,-112.904028,0,0,0,0,0,0,0,"415,004",0,0
AZ,"Mesquite Solar 2, LLC",33.332777,-112.911388,0,0,0,0,0,0,0,"285,023",0,0
AZ,"Mesquite Solar 3, LLC",33.347583,-112.936805,0,0,0,0,0,0,0,"445,789",0,0
AZ,Mohave Electric at Fort Mohave,34.9843,-114.5565,0,0,0,0,0,0,0,"39,871",0,0
AZ,Mormon Flat,33.5536,-111.4431,0,0,0,0,"17,190",0,0,0,0,0
AZ,Navajo Generating Station,36.9047,-111.3886,"12,994,358","23,079",0,0,0,0,0,0,0,0
AZ,"New Harquahala Generating Company, LLC",33.47596,-113.113434,0,0,"3,815",0,0,0,0,0,0,0
AZ,North Loop,32.401,-111.1262,0,0,"7,898",0,0,0,0,0,0,0
AZ,Northwest Regional,33.681944,-112.476666,0,0,0,0,0,"23,147",0,0,0,0
AZ,Novo BioPower Plant,34.503158,-110.334953,0,0,-479,0,0,"182,120",0,0,0,0
AZ,Ocotillo Power Plant,33.4225,-111.9122,0,0,"270,760",0,0,0,0,0,0,0
AZ,Palo Verde,33.3881,-112.8617,0,0,0,"31,097,259",0,0,0,0,0,0
AZ,Paloma Solar,33.021111,-112.661389,0,0,0,0,0,0,0,"37,861",0,0
AZ,Paradise Valley H.S. PV,33.6416,-111.9997,0,0,0,0,0,0,0,"2,594",0,0
AZ,Perrin Ranch Wind LLC,35.415556,-112.271111,0,0,0,0,0,0,"212,667",0,0,0
AZ,Phoenix Airport East Economy Lot,33.4345,-111.9842,0,0,0,0,0,0,0,"1,954",0,0
AZ,Phoenix Airport Rental Car Center,33.43042,-112.04484,0,0,0,0,0,0,0,"6,090",0,0
AZ,"Picture Rocks Solar, LLC",32.369722,-111.242778,0,0,0,0,0,0,0,"52,539",0,0
AZ,Pima Community College,32.166494,-110.816669,0,0,0,0,0,0,0,"2,798",0,0
AZ,Pima Community College - East Campus,32.146142,-110.990639,0,0,0,0,0,0,0,0,0,0
AZ,Pima Energy Storage System,32.251647,-110.991333,0,0,0,0,0,0,0,0,0,-514
AZ,Pinal Central Energy Center,32.875697,-111.551111,0,0,0,0,0,0,0,"50,931",0,"-1,652"
AZ,Prairie Fire,32.116389,-110.82,0,0,0,0,0,0,0,"8,233",0,0
AZ,Prescott Airport,34.6584,-112.4008,0,0,0,0,0,0,0,"5,542",0,0
AZ,Prescott Solar Plant,34.649444,-112.4275,0,0,0,0,0,0,0,"14,562",0,0
AZ,Punkin Center Battery Storage,33.87581,-111.31356,0,0,0,0,0,0,0,0,0,0
AZ,Queen Creek Solar Farm,33.2675,-111.612222,0,0,0,0,0,0,0,"49,557",0,0
AZ,RE Ajo 1 LLC,32.367013,-112.831401,0,0,0,0,0,0,0,"10,135",0,0
AZ,RE Bagdad Solar I LLC,34.585833,-113.177222,0,0,0,0,0,0,0,"34,344",0,0
AZ,Red Horse 2,32.286111,-110.088056,0,0,0,0,0,0,"68,990","157,116",0,0
AZ,Red Horse III,32.13597,-110.05129,0,0,0,0,0,0,0,"81,228",0,0
AZ,Red Rock,32.551026,-111.289232,0,0,0,0,0,0,0,"120,005",0,0
AZ,Redhawk Generating Facility,33.334562,-112.840641,0,0,"3,591,886",0,0,0,0,0,0,0
AZ,Rio Rico Solar,31.5,-111.008056,0,0,0,0,0,0,0,"11,252",0,0
AZ,Roger Road WWTP,32.2894,-111.0331,0,0,0,0,0,0,0,"1,422",0,0
AZ,Roosevelt,33.671104,-111.161786,0,0,0,0,"58,274",0,0,0,0,0
AZ,Saddle Mountain Solar I,33.378333,-113.180833,0,0,0,0,0,0,0,"34,527",0,0
AZ,Sandstone Solar,33.035556,-111.430278,0,0,0,0,0,0,0,"123,177",0,0
AZ,Santan,33.3325,-111.7503,0,0,"3,752,533",0,0,0,0,0,0,0
AZ,Solana Generating Station,32.922294,-112.95594,0,0,0,0,0,0,0,"776,013",0,0
AZ,South Consolidated,33.466477,-111.781064,0,0,0,0,0,0,0,0,0,0
AZ,"South Point Energy Center, LLC",34.8678,-114.5317,0,0,"261,151",0,0,0,0,0,0,0
AZ,Springerville Generating Station,34.3186,-109.1639,"9,923,571","14,257",0,0,0,0,0,"24,012",0,0
AZ,SR85,33.145,-112.66,0,0,0,0,0,0,0,"29,690",0,0
AZ,Stewart Mountain,33.5661,-111.536,0,0,0,0,"25,730",0,0,0,0,0
AZ,Sulphur Springs,32.0628,-109.919283,0,0,0,0,0,0,0,"54,435",0,0
AZ,"Sun Streams, LLC",33.34884,-112.8348,,,,,,,,,,
AZ,Sundance Power Plant,32.9285,-111.5899,0,0,"364,133",0,0,0,0,0,0,0
AZ,T0588 Phoenix - AZ,33.447225,-112.217664,0,0,0,0,0,0,0,"2,670",0,0
AZ,TAA Solar Facility,32.115833,-110.940833,,,,,,,,,,
AZ,Tech Park Solar,32.097884,-110.815696,0,0,0,0,0,0,0,"13,385",0,0
AZ,Tri Cities,33.4833,-111.8172,,,,,,,,,,
AZ,UASTP I,32.096973,-110.8106,0,0,0,0,0,0,0,"2,997",0,0
AZ,Union HS at Casa Grande,32.936944,-111.738611,0,0,0,0,0,0,0,"3,219",0,0
AZ,University of Arizona - Biosphere 2,32.578011,-110.852608,0,21,21,0,0,0,0,0,0,0
AZ,Valencia,31.363472,-110.931343,0,0,"3,042",0,0,0,0,0,0,0
AZ,Valencia Solar,32.145833,-110.866944,0,0,0,0,0,0,0,"24,922",0,0
AZ,Vista Grande HS at Casa Grande,32.891389,-111.713056,0,0,0,0,0,0,0,"3,040",0,0
AZ,Waddell,33.8447,-112.2714,0,0,0,0,"-29,888",0,0,0,0,0
AZ,Walmart Casa Grande,32.866837,-111.771751,0,0,0,0,0,0,0,"1,444",0,0
AZ,Western Renewable Energy,34.093006,-109.289979,,,,,,,,,,
AZ,White Wing Solar,32.994056,-113.508806,,,,,,,,,,
AZ,Yucca Power Plant,32.7214,-114.7106,0,"3,094","453,683",0,0,0,0,0,0,0
AZ,Yuma Cogeneration Associates,32.728822,-114.654053,0,0,"41,296",0,0,0,0,0,0,0
CA,1420 Coil Av #C,33.794283,-118.241405,0,0,0,0,0,0,0,"2,139",0,0
CA,2081 Terzian Solar Project,36.67,-119.415833,0,0,0,0,0,0,0,"1,466",0,0
CA,2097 Helton Solar Project,37.352222,-120.506944,0,0,0,0,0,0,0,"2,365",0,0
CA,2127 Harris Solar Project,39.291667,-121.669722,0,0,0,0,0,0,0,"2,662",0,0
CA,2555 E Olympic Bl,34.026944,-118.224167,0,0,0,0,0,0,0,"1,320",0,0
CA,85 A,35.1011,-118.3372,0,0,0,0,0,0,"15,766",0,0,0
CA,85 B,35.1011,-118.3372,0,0,0,0,0,0,"18,824",0,0,0
CA,A G Wishon,37.15105,-119.504724,0,0,0,0,"25,652",0,0,0,0,0
CA,ABEC #2 dba West-Star Dairy,35.472113,-119.432866,0,0,0,0,0,"7,003",0,0,0,0
CA,ABEC #3 dba Lakeview Dairy,35.21426,-119.202974,0,0,0,0,0,"6,117",0,0,0,0
CA,ABEC #4 dba CE&S Dairy,35.17306,-119.116384,0,0,0,0,0,"6,982",0,0,0,0
CA,ABEC Bidart-Old River LLC,35.169722,-119.105556,0,0,0,0,0,"11,756",0,0,0,0
CA,Acorn I Energy Storage LLC,34.196505,-118.931898,,,,,,,,,,
CA,"Adelanto Solar II, LLC",34.557222,-117.3775,0,0,0,0,0,0,0,"18,853",0,0
CA,Adelanto Solar Project,34.550833,-117.435277,0,0,0,0,0,0,0,"15,634",0,0
CA,"Adelanto Solar, LLC",34.557222,-117.3775,0,0,0,0,0,0,0,"60,037",0,0
CA,Adera Solar,37.120586,-120.32488,0,0,0,0,0,0,0,"42,969",0,0
CA,Adobe San Jose,37.330556,-121.893056,0,0,"8,390",0,0,0,0,0,0,0
CA,Adobe Solar,35.102778,-118.954444,0,0,0,0,0,0,0,"50,262",0,0
CA,Aera San Ardo Cogen Facility,35.953293,-120.859952,0,0,"49,041",0,0,0,0,0,0,0
CA,Aera South Belridge Cogen Facility,35.4292,-119.6864,,,,,,,,,,
CA,Aerojet I,38.613508,-121.162879,0,0,0,0,0,0,0,"5,028",0,0
CA,Aerojet II,38.6086,-121.1703,0,0,0,0,0,0,0,"3,892",0,0
CA,Aerolease,34.189857,-118.451355,0,0,0,0,0,0,0,568,0,0
CA,AES Alamitos,33.7688,-118.1009,0,0,"958,300",0,0,0,0,0,0,0
CA,AES Alamitos Energy Center,33.767229,-118.100194,,,,,,,,,,
CA,"AES ES ALAMITOS, LLC",33.770202,-118.099665,,,,,,,,,,
CA,AES Huntington Beach,33.6439,-117.9792,0,0,"319,522",0,0,0,0,0,0,0
CA,AES Huntington Beach Energy Project,33.645618,-117.979372,,,,,,,,,,
CA,AES Redondo Beach,33.8504,-118.395,0,0,"274,507",0,0,0,0,0,0,0
CA,Agnews Power Plant,37.4058,-121.9272,0,0,"15,801",0,0,0,0,0,0,0
CA,Agua Mansa Power,34.0414,-117.3603,0,0,"7,862",0,0,0,0,0,0,0
CA,Aidlin Geothermal Power Plant,38.8339,-122.881,0,0,0,0,0,0,0,0,"114,165",0
CA,Alameda,37.7886,-122.2889,0,0,"9,563",0,0,0,0,0,0,0
CA,Alamo,34.8158,-118.6867,0,0,0,0,"52,794",0,0,0,0,0
CA,Alamo Solar,34.682222,-117.3475,0,0,0,0,0,0,0,"52,281",0,0
CA,Algonquin Power Sanger,36.6842,-119.5522,0,0,"176,139",0,0,0,0,0,0,0
CA,"Algonquin SKIC 10 Solar, LLC",35.126111,-119.243361,0,0,0,0,0,0,0,"21,766",0,0
CA,Algonquin SKIC20 Solar LLC,35.126111,-119.243333,0,0,0,0,0,0,0,"48,246",0,0
CA,Almond,36.21222,-119.91,,,,,,,,,,
CA,Almond Power Plant,37.5744,-120.985,0,0,"169,771",0,0,0,0,0,0,0
CA,Alpaugh 50,35.898333,-119.435278,0,0,0,0,0,0,0,"121,792",0,0
CA,Alpaugh North,35.9025,-119.442778,0,0,0,0,0,0,0,"48,608",0,0
CA,Alpine Solar,34.7892,-118.5047,0,0,0,0,0,0,0,"161,643",0,0
CA,Alta Mesa Project Phase IV,33.946389,-116.663333,,,,,,,,,,
CA,Alta Powerhouse,39.215979,-120.80355,0,0,0,0,"3,438",0,0,0,0,0
CA,Alta Wind Energy Center I,35.033725,-118.353422,0,0,0,0,0,0,"399,302",0,0,0
CA,Alta Wind Energy Center II,35.023889,-118.295278,0,0,0,0,0,0,"349,772",0,0,0
CA,Alta Wind Energy Center III,35.023889,-118.295278,0,0,0,0,0,0,"361,029",0,0,0
CA,Alta Wind Energy Center IV,35.008611,-118.242222,0,0,0,0,0,0,"178,715",0,0,0
CA,Alta Wind Energy Center V,35.008611,-118.242222,0,0,0,0,0,0,"284,839",0,0,0
CA,Alta Wind VIII,35.026683,-118.234811,0,0,0,0,0,0,"270,077",0,0,0
CA,Alta Wind X,35.06,-118.2,0,0,0,0,0,0,"373,532",0,0,0
CA,Alta Wind XI,35.065,-118.39,0,0,0,0,0,0,"261,386",0,0,0
CA,AltaGas Pomona Energy Inc.,34.059444,-117.774167,0,0,0,0,0,0,0,0,0,"-2,468"
CA,AltaGas Ripon Energy Inc.,37.732533,-121.116006,0,0,"9,868",0,0,0,0,0,0,0
CA,Altamont Gas Recovery,37.749308,-121.649866,0,0,0,0,0,"40,578",0,0,0,0
CA,Altamont Midway Ltd,37.7392,-121.4322,,,,,,,,,,
CA,Altech III,33.915023,-116.555064,0,0,0,0,0,0,"9,160",0,0,0
CA,Alvarado Hydro Facility,32.7814,-117.0411,,,,,,,,,,
CA,Amazon - Patterson PV,37.468888,-121.166326,0,0,0,0,0,0,0,"7,234",0,0
CA,Amazon San Bernardino,34.088408,-117.245839,0,0,"7,166",0,0,0,0,0,0,0
CA,Amedee Geothermal Venture I,40.300833,-120.105,0,0,0,0,0,0,0,0,0,0
CA,Ameresco Butte County,39.674,-121.73,0,0,0,0,0,"13,521",0,0,0,0
CA,Ameresco Chiquita Canyon,34.431664,-118.642855,0,0,0,0,0,"47,566",0,0,0,0
CA,Ameresco Forward,37.883406,-121.185104,0,0,0,0,0,"31,755",0,0,0,0
CA,Ameresco Johnson Canyon,36.534167,-121.408611,0,0,0,0,0,"10,122",0,0,0,0
CA,Ameresco Keller Canyon,38.003928,-121.934491,0,0,0,0,0,"29,784",0,0,0,0
CA,Ameresco Ox Mountain,37.5,-122.4,0,0,0,0,0,"85,173",0,0,0,0
CA,Ameresco San Joaquin,38.029722,-120.929722,0,0,0,0,0,"33,077",0,0,0,0
CA,Ameresco Santa Cruz Energy,36.9178,-121.8156,0,0,0,0,0,"18,925",0,0,0,0
CA,Ameresco Vasco Road,37.754444,-121.728889,0,0,0,0,0,"33,699",0,0,0,0
CA,American Canyon Solar,38.160858,-122.214014,,,,,,,,,,
CA,"American Kings Solar, LLC",36.24,-119.898,,,,,,,,,,
CA,Ampersand Chowchilla Biomass LLC,37.106668,-120.248504,0,0,35,0,0,"67,146",0,0,0,0
CA,Anaheim Combustion Turbine,33.853542,-117.856286,0,0,"38,770",0,0,0,0,0,0,0
CA,Anaheim Solar Energy Plant,33.8025,-117.919722,0,0,0,0,0,0,0,"3,332",0,0
CA,Angels,38.071944,-120.539444,0,0,0,0,"5,826",0,0,0,0,0
CA,Anheuser-Busch #2,38.233611,-122.0925,0,0,0,0,0,0,"3,509",0,0,0
CA,Antelope Big Sky Ranch,34.694839,-118.28769,0,0,0,0,0,0,0,"57,292",0,0
CA,Antelope DSR 1,34.655556,-118.280722,0,0,0,0,0,0,0,"132,459",0,0
CA,Antelope DSR 2,34.686944,-118.311722,0,0,0,0,0,0,0,"14,562",0,0
CA,Antelope DSR 3,34.736859,-118.304071,,,,,,,,,,
CA,Antelope Expansion 1B,34.71611,-118.259161,,,,,,,,,,
CA,Antelope Expansion 2,34.744977,-118.309153,0,0,0,0,0,0,0,"10,259",0,0
CA,Antelope Expansion 3A,34.728902,-118.322051,,,,,,,,,,
CA,Antelope Expansion 3B,34.720162,-118.322532,,,,,,,,,,
CA,"AP North Lake I, LP",33.74,-117.010556,0,0,0,0,0,0,0,"46,045",0,0
CA,APP Prune A-D,37.331666,-122.006686,0,0,0,0,0,0,0,0,0,0
CA,Apple Campus 2 Fuel Cell,37.33,-122.01,0,0,0,0,0,"30,204",0,0,0,0
CA,Apple Campus 2 PV,37.33,-122.01,0,0,0,0,0,0,0,"3,688",0,0
CA,Aquamarine,36.189722,-119.904166,,,,,,,,,,
CA,Argus Cogen Plant,35.765,-117.3833,"281,328",0,"14,459",0,0,0,0,0,0,0
CA,Arrache 4006,34.655,-118.051111,0,0,0,0,0,0,0,"2,771",0,0
CA,Arrache 4013,34.650556,-118.051944,0,0,0,0,0,0,0,"4,256",0,0
CA,Arrache 8083,34.647778,-118.061111,0,0,0,0,0,0,0,"4,272",0,0
CA,Aspiration G,36.552186,-120.352481,0,0,0,0,0,0,0,"22,152",0,0
CA,ASTI,38.761389,-122.975278,0,0,0,0,0,0,0,"1,419",0,0
CA,AT&T Anaheim,33.836439,-117.916893,0,0,"10,145",0,0,0,0,0,0,0
CA,AT&T Holger,37.417638,-121.94453,0,0,"10,550",0,0,0,0,0,0,0
CA,ATT  Kelvin,33.684675,-117.836821,0,0,0,0,0,0,0,0,0,0
CA,ATT Van Nyus,34.196324,-118.448225,0,0,"8,256",0,0,0,0,0,0,0
CA,Atwell Island,35.895,-119.510833,0,0,0,0,0,0,0,"39,778",0,0
CA,Atwell Island West Solar,35.815,-119.459722,0,0,0,0,0,0,0,"55,411",0,0
CA,AV Solar Ranch One,34.780278,-118.42444,0,0,0,0,0,0,0,"606,235",0,0
CA,Avenal Park,35.989722,-120.11,0,0,0,0,0,0,0,"10,547",0,0
CA,AVS Lancaster 1,34.748894,-117.973571,0,0,0,0,0,0,0,"8,752",0,0
CA,Axium Modesto Solar,37.734167,-120.995556,0,0,0,0,0,0,0,"63,929",0,0
CA,Azusa,34.1548,-117.9093,0,0,0,0,0,0,0,0,0,0
CA,B Braun Medical,33.688721,-117.834793,0,0,"40,066",0,0,0,0,0,0,0
CA,Badger Creek Limited,35.483736,-119.029856,0,0,"7,556",0,0,0,0,0,0,0
CA,Baker Creek Hydroelectric,40.526389,-123.725556,0,0,0,0,"3,314",0,0,0,0,0
CA,Bakersfield 111,35.317551,-118.989894,0,0,0,0,0,0,0,"2,973",0,0
CA,Bakersfield College Solar 01,35.411817,-118.96864,0,0,0,0,0,0,0,"2,056",0,0
CA,Bakersfield Industrial PV 1,35.330032,-118.993119,0,0,0,0,0,0,0,"2,147",0,0
CA,Bakersfield PV 1,35.324982,-118.981522,0,0,0,0,0,0,0,"10,813",0,0
CA,Balch 1,36.909137,-119.087712,0,0,0,0,"82,440",0,0,0,0,0
CA,Balch 2,36.908907,-119.087556,0,0,0,0,"403,455",0,0,0,0,0
CA,Barre Generating Station,33.8073,-117.9832,0,0,"33,130",0,0,0,0,0,0,0
CA,"Bayshore Solar A, LLC",34.667817,-118.298089,0,0,0,0,0,0,0,"55,219",0,0
CA,"Bayshore Solar B, LLC",34.678305,-118.302649,0,0,0,0,0,0,0,"55,574",0,0
CA,"Bayshore Solar C, LLC",34.681338,-118.314087,0,0,0,0,0,0,0,"54,085",0,0
CA,Beacon BESS 1,35.256526,-118.027519,0,0,0,0,0,0,0,0,0,-331
CA,Beacon Solar Plant Site 2,35.265833,-117.999167,0,0,0,0,0,0,0,"127,915",0,0
CA,Beacon Solar Plant Site 5,35.248889,-118.034444,0,0,0,0,0,0,0,"100,039",0,0
CA,Bear Canyon Power Plant,38.762968,-122.692915,,,,,,,,,,
CA,Bear Creek,40.534454,-121.959109,0,0,0,0,"3,518",0,0,0,0,0
CA,Bear Creek Solar,38.136389,-121.148889,0,0,0,0,0,0,0,"3,367",0,0
CA,Bear Mountain Limited,35.419181,-118.926643,0,0,"35,766",0,0,0,0,0,0,0
CA,Bear Valley,33.166246,-117.016566,0,0,0,0,133,0,0,0,0,0
CA,Bear Valley Power Plant,34.2506,-116.9025,0,0,56,0,0,0,0,0,0,0
CA,Beardsley,38.202569,-120.076983,0,0,0,0,"53,455",0,0,0,0,0
CA,Belden,40.007445,-121.249438,0,0,0,0,"233,801",0,0,0,0,0
CA,Beringer,38.510833,-122.479722,0,0,0,0,0,0,0,"1,511",0,0
CA,Berry Cogen,35.093046,-119.443617,0,0,"293,027",0,0,0,0,0,0,0
CA,Berry Cogen Tanne Hills 18,35.089829,-119.440881,0,0,"89,956",0,0,0,0,0,0,0
CA,Berry NMW Cogens,35.307555,-119.611551,0,0,"39,305",0,0,0,0,0,0,0
CA,Berry Placerita Cogen,34.38407,-118.494882,0,0,"295,809",0,0,0,0,0,0,0
CA,Bidwell Ditch Project,40.8014,-121.4481,0,0,0,0,"11,596",0,0,0,0,0
CA,Big Creek 1,37.2042,-119.2396,0,0,0,0,"344,767",0,0,0,0,0
CA,Big Creek 2,37.2,-119.3069,0,0,0,0,"321,725",0,0,0,0,0
CA,Big Creek 2A,37.200062,-119.30681,0,0,0,0,"447,135",0,0,0,0,0
CA,Big Creek 3,37.148517,-119.386623,0,0,0,0,"678,769",0,0,0,0,0
CA,Big Creek 4,37.139,-119.4898,0,0,0,0,"279,726",0,0,0,0,0
CA,Big Creek 8,37.2096,-119.3289,0,0,0,0,"245,586",0,0,0,0,0
CA,Big Creek Water Works,40.646733,-123.498008,0,0,0,0,"6,327",0,0,0,0,0
CA,Big Pine Creek,37.142795,-118.324075,0,0,0,0,"12,883",0,0,0,0,0
CA,Big Valley Power LLC,41.1325,-121.137222,,,,,,,,,,
CA,Biola University,33.906953,-118.013105,0,0,"14,268",0,0,0,0,0,0,0
CA,Bishop Creek 2,37.273581,-118.573339,0,0,0,0,"27,938",0,0,0,0,0
CA,Bishop Creek 3,37.301962,-118.531957,0,0,0,0,"28,121",0,0,0,0,0
CA,Bishop Creek 4,37.323035,-118.501714,0,0,0,0,"47,531",0,0,0,0,0
CA,Bishop Creek 5,37.3344,-118.4797,0,0,0,0,"16,272",0,0,0,0,0
CA,Bishop Creek 6,37.3499,-118.4628,0,0,0,0,"5,870",0,0,0,0,0
CA,Black Butte,39.814905,-122.332335,0,0,0,0,"4,339",0,0,0,0,0
CA,Black Rock I,33.1594,-115.6144,,,,,,,,,,
CA,Black Rock II,33.1594,-115.6144,,,,,,,,,,
CA,Black Rock III,33.1594,-115.6144,,,,,,,,,,
CA,Blacksand Generating Facility,33.9328,-117.855,0,0,0,0,0,0,0,0,0,"27,284"
CA,Blackwell Solar Park,35.604167,-119.849722,,,,,,,,,,
CA,Blue Lake Power LLC,40.8786,-123.9942,0,0,0,0,0,0,0,0,0,0
CA,Blue Shld Of Cal- El Dorado Hlls Mtr B,38.650627,-121.074115,0,0,0,0,0,0,0,0,0,0
CA,Blythe Energy,33.6157,-114.6865,0,0,"2,695,876",0,0,0,0,0,0,0
CA,"Blythe Solar 110, LLC",33.68,-114.742,0,0,0,0,0,0,0,"298,847",0,0
CA,"Blythe Solar II, LLC",33.68,-114.73,0,0,0,0,0,0,0,"345,086",0,0
CA,"Blythe Solar III, LLC",33.656,-114.742,,,,,,,,,,
CA,"Blythe Solar IV, LLC",33.682,-114.768,,,,,,,,,,
CA,Bolthouse Farms Fuel Cell,35.355114,-118.928146,,,,,,,,,,
CA,Bolthouse S&P and Rowen Farms Solar,34.5644,-117.6933,0,0,0,0,0,0,0,"1,886",0,0
CA,Borden Solar Farm,36.941111,-119.96,,,,,,,,,,
CA,Borel,35.588069,-118.524804,0,0,0,0,-217,0,0,0,0,0
CA,Borrego Springs Energy Storage,33.27011,-116.3496,0,0,0,0,0,0,0,0,0,-32
CA,Bottle Rock Power,38.8348,-122.7677,0,0,0,0,0,0,0,0,0,0
CA,"Bowerman Power LFG, LLC",33.718889,-117.702222,0,0,0,0,0,"152,963",0,0,0,0
CA,Bowman,39.448352,-120.653417,0,0,0,0,"13,920",0,0,0,0,0
CA,Box Canyon Dam,41.2792,-122.3292,0,0,0,0,"8,754",0,0,0,0,0
CA,BP Carson Refinery,33.8153,-118.2358,0,0,0,0,0,0,0,0,0,0
CA,Brawley,32.968889,-115.534444,,,,,,,,,,
CA,Brea Expansion Plant,33.932022,-117.840233,0,0,0,0,0,"248,604",0,0,0,0
CA,Britton Powerhouse,41.021389,-121.675,,,,,,,,,,
CA,Broadridge Cogen,38.6183,-121.0564,0,0,"11,302",0,0,0,0,0,0,0
CA,Broadway (CA),34.1254,-118.148,,,,,,,,,,
CA,Brookfield Tehachapi 1,35.008333,-118.241389,0,0,0,0,0,0,"275,149",0,0,0
CA,Buckeye Geothermal Power Plant,38.8242,-122.84,,,,,,,,,,
CA,Bucks Creek,39.91062,-121.327692,0,0,0,0,"131,028",0,0,0,0,0
CA,Buena Vista Biomass Power,38.277778,-120.913611,0,0,0,0,0,0,0,0,0,0
CA,Buena Vista Energy LLC,37.805,-121.6672,0,0,0,0,0,0,"98,294",0,0,0
CA,Buidling L,33.912917,-118.041944,0,0,0,0,0,0,0,"1,734",0,0
CA,Building F,33.914356,-118.050189,0,0,0,0,0,0,0,"2,387",0,0
CA,Building G,33.912917,-118.050561,0,0,0,0,0,0,0,"2,226",0,0
CA,Burney Creek,40.8579,-121.7225,0,0,0,0,"3,366",0,0,0,0,0
CA,Burney Forest Products,40.879719,-121.720342,0,0,"8,855",0,0,"193,452",0,0,0,0
CA,Butt Valley,40.175656,-121.190663,0,0,0,0,"58,440",0,0,0,0,0
CA,Butte College Main Campus Solar,39.648056,-121.644167,0,0,0,0,0,0,0,"5,529",0,0
CA,C P Kelco San Diego Plant,32.6947,-117.1436,0,0,"81,590",0,0,0,0,0,0,0
CA,C&H Sugar Plant,38.057222,-122.218889,0,0,0,0,0,0,0,0,0,"46,111"
CA,CA Dept of Public Health at Richmond,37.92,-122.344,0,0,0,0,0,0,0,"4,230",0,0
CA,"CA Flats Solar 130, LLC",35.615573,-120.404352,0,0,0,0,0,0,0,"361,793",0,0
CA,"CA Flats Solar 150, LLC",35.615573,-120.404352,,,,,,,,,,
CA,Cabazon Wind Partners,33.9172,-116.735,0,0,0,0,0,0,"113,364",0,0,0
CA,Cabrillo Power I Encina Power Station,33.1361,-117.3364,0,0,"299,121",0,0,0,0,0,0,0
CA,Calabasas Gas to Energy Facility,34.1511,-118.7236,0,0,0,0,0,"32,679",0,0,0,0
CA,California Institute of Technology,34.138467,-118.1256,0,0,"90,067",0,0,0,0,0,0,0
CA,California PV Energy at ISD WWTP,38.001111,-121.703889,0,0,0,0,0,0,0,"2,009",0,0
CA,California State University San Bernardi,34.185833,-117.324167,0,0,"8,469",0,0,0,0,0,0,0
CA,California Valley Solar Ranch,35.323739,-119.91663,0,0,0,0,0,0,0,"676,633",0,0
CA,Calipatria Solar Farm,33.165833,-115.532222,0,0,0,0,0,0,0,"41,922",0,0
CA,Calistoga Power Plant,38.7879,-122.7434,0,0,0,0,0,0,0,0,"500,756",0
CA,CalPeak Power - Border,32.562448,-116.943869,0,0,"11,381",0,0,0,0,0,0,0
CA,CalPeak Power - Enterprise,33.121943,-117.117441,0,0,"12,241",0,0,0,0,0,0,0
CA,CalPeak Power - Panoche,36.6535,-120.5783,0,0,"25,513",0,0,0,0,0,0,0
CA,CalPeak Power - Vaca Dixon,38.398867,-121.923973,0,0,"11,340",0,0,0,0,0,0,0
CA,"Calpine Gilroy Cogen, LP",37.0001,-121.5367,0,0,"102,682",0,0,0,0,0,0,0
CA,Calpine Sutter Energy Center,39.053139,-121.695873,0,0,"589,517",0,0,0,0,0,0,0
CA,CalRenew-1,36.7575,-120.3658,0,0,0,0,0,0,0,"9,855",0,0
CA,Caltech Central,34.1358,-118.1267,0,0,"8,304",0,0,0,0,0,0,0
CA,Camanche,38.2268,-121.0245,0,0,0,0,"24,106",0,0,0,0,0
CA,Cameron Ridge LLC,35.075,-118.3158,0,0,0,0,0,0,"151,385",0,0,0
CA,Camino,38.82881,-120.537089,0,0,0,0,"291,165",0,0,0,0,0
CA,Camp Far West,39.048802,-121.316966,0,0,0,0,"25,365",0,0,0,0,0
CA,Campo Verde Solar,32.753333,-115.726389,0,0,0,0,0,0,0,"326,519",0,0
CA,Cantua Solar Station,36.425085,-120.343543,0,0,0,0,0,0,0,"42,223",0,0
CA,Canyon Crest Academy,32.95907,-117.191622,0,0,0,0,0,0,0,0,0,-23
CA,Canyon Power Plant,33.858056,-117.861667,0,0,"181,871",0,0,0,0,0,0,0
CA,Caribou 1,40.085476,-121.148241,0,0,0,0,"114,369",0,0,0,0,0
CA,Caribou 2,40.085997,-121.149373,0,0,0,0,"358,407",0,0,0,0,0
CA,Carlsbad Energy Center,33.140507,-117.333916,0,0,"132,599",0,0,0,0,0,0,0
CA,Carson Cogeneration,38.445681,-121.462387,0,0,"357,404",0,0,"10,713",0,0,0,0
CA,Carson Cogeneration Company,33.8759,-118.2491,0,0,0,0,0,0,0,0,0,0
CA,"Cascade Energy Storage, LLC",37.920124,-121.239242,,,,,,,,,,
CA,Cascade Solar,34.157222,-116.234444,0,0,0,0,0,0,0,"49,260",0,0
CA,Castaic,34.587237,-118.656638,0,0,0,0,"232,402",0,0,0,0,0
CA,Castle Rock Vineyards,35.801111,-119.110556,0,0,0,0,0,0,0,"1,766",0,0
CA,Castor Solar,35.211044,-119.387258,0,0,0,0,0,0,0,"2,637",0,0
CA,"Catalina Solar 2, LLC",34.812222,-118.352778,0,0,0,0,0,0,0,"56,028",0,0
CA,Catalina Solar LLC,34.938261,-118.334492,0,0,0,0,0,0,0,"265,280",0,0
CA,CBS Studio Center,34.145,-118.390833,0,0,"8,608",0,0,0,0,0,0,0
CA,CBS Television City,34.075,-118.36,0,0,0,0,0,0,0,"1,765",0,0
CA,CCCSD Wastewater Treatment Plnt,37.9978,-122.0697,0,0,"21,790",0,0,0,0,0,0,0
CA,CDCR (CA) - Corcoran State Prison,36.06502,-119.55756,0,0,0,0,0,0,0,"3,067",0,0
CA,CDCR (CA) - Pleasant Valley State Prison,36.137219,-120.224445,0,0,0,0,0,0,0,"3,066",0,0
CA,CDCR (CA) - Solano State Prison,38.32272,-121.97062,0,0,0,0,0,0,0,"2,446",0,0
CA,CDCR (CA) - Wasco State Prison,35.60053,-119.40366,0,0,0,0,0,0,0,"3,540",0,0
CA,CE Leathers,33.1779,-115.565,0,0,0,0,0,0,0,0,"328,103",0
CA,CE Turbo LLC,33.1669,-115.5114,0,0,0,0,0,0,0,0,"78,683",0
CA,CE&P Imperial Valley 1,32.912778,-115.518333,,,,,,,,,,
CA,CED Avenal,35.996324,-120.15146,0,0,0,0,0,0,0,"40,727",0,0
CA,CED Ducor 1,35.856278,-119.068414,0,0,0,0,0,0,0,"52,444",0,0
CA,CED Ducor 2,35.844167,-119.068069,0,0,0,0,0,0,0,"52,276",0,0
CA,CED Ducor 3,35.845378,-119.056992,0,0,0,0,0,0,0,"39,207",0,0
CA,CED Ducor 4,35.850403,-119.026992,0,0,0,0,0,0,0,"52,343",0,0
CA,Center Generating Station,33.9296,-118.1046,0,0,"14,862",0,0,0,0,0,0,0
CA,Centerville PH,39.788877,-121.657383,,,,,,,,,,
CA,Centinela Solar Energy,32.686944,-115.647778,0,0,0,0,0,0,0,"458,800",0,0
CA,Central Antelope Dry Ranch B LLC,34.705549,-118.301417,0,0,0,0,0,0,0,"8,397",0,0
CA,Central Antelope Dry Ranch C,34.720499,-118.30046,0,0,0,0,0,0,0,"39,449",0,0
CA,Central Utilities Plant LAX,33.943965,-118.40425,,,,,,,,,,
CA,Central Utilities Plant LAX 2,33.943889,-118.404167,0,0,"30,616",0,0,0,0,0,0,0
CA,Central Valley Ag Power,37.719722,-120.898611,0,0,0,0,0,389,0,0,0,0
CA,Century Generating Facility,34.0606,-117.3533,0,0,"1,266",0,0,0,0,0,0,0
CA,CES Placerita Power Plant,34.3801,-118.4999,,,,,,,,,,
CA,CFW Solar X LLC - Vaughn,34.277355,-118.429836,0,0,0,0,0,0,0,80,0,0
CA,Chaffey College Rancho Cucamonga Campus,34.148139,-117.570404,0,0,0,0,0,0,0,"6,300",0,0
CA,Chalk Cliff Limited,35.0968,-119.4299,0,0,"15,300",0,0,0,0,0,0,0
CA,Chalk Mountain Powerhouse,40.988056,-121.768333,,,,,,,,,,
CA,Chicago Park,39.177903,-120.890856,0,0,0,0,"124,022",0,0,0,0,0
CA,Childrens Hospital,32.7992,-117.1517,0,12,"26,902",0,0,0,0,0,0,0
CA,Chili Bar,38.771764,-120.813239,0,0,0,0,"27,250",0,0,0,0,0
CA,Chowchilla II,37.1073,-120.2485,0,0,"18,429",0,0,0,0,0,0,0
CA,Chuckawalla Solar,33.568333,-114.918056,0,0,0,0,0,0,0,"8,752",0,0
CA,Chuckawalla Valley State Prison,33.565329,-114.903629,0,0,0,0,0,0,0,"1,529",0,0
CA,Chula Vista Energy Center,32.591667,-117.058611,0,0,"3,070",0,0,0,0,0,0,0
CA,"CID Solar, LLC",36.138056,-119.564722,0,0,0,0,0,0,0,"52,378",0,0
CA,Citizen B,36.723806,-120.432139,0,0,0,0,0,0,0,"11,451",0,0
CA,Citizens Imperial Solar,33.191661,-115.433783,,,,,,,,,,
CA,City of Hayward WWTP,37.633526,-122.139717,0,0,77,0,0,"8,469",0,"2,185",0,0
CA,City of Madera WWTP,36.9408,-120.1572,0,0,0,0,0,0,0,"1,663",0,0
CA,City of Palo Alto,37.4383,-122.1094,0,0,31,0,0,0,0,0,0,0
CA,City of Soledad Water Reclamation,36.421111,-121.340278,0,0,0,0,0,0,"4,127",0,0,0
CA,City of Tulare Water Facility,36.185,-119.375,0,0,"2,115",0,0,0,0,0,0,0
CA,Civic Center,34.0564,-118.2436,0,0,"102,962",0,0,0,0,0,0,0
CA,Clear Lake Hydro Project,38.923556,-122.56668,,,,,,,,,,
CA,Clearwater Power Plant,33.8912,-117.6085,0,0,"14,932",0,0,0,0,0,0,0
CA,Cloverdale Solar Center,38.769581,-123.020724,,,,,,,,,,
CA,Cloverdale Solar I,38.773056,-123.017778,0,0,0,0,0,0,0,"2,620",0,0
CA,Coachella,33.6758,-116.1714,0,58,"2,732",0,0,0,0,0,0,0
CA,Coal Canyon,39.605043,-121.600525,,,,,,,,,,
CA,Coalinga 25D Cogen,36.1556,-120.3972,0,0,"71,419",0,0,0,0,0,0,0
CA,Coalinga 6C Cogen,36.2097,-120.3828,,,,,,,,,,
CA,Coalinga Cogeneration Facility,36.1807,-120.3885,0,0,0,0,0,0,0,0,0,0
CA,Coalinga Cogeneration Facility,36.170317,-120.364084,0,0,"48,672",0,0,0,0,0,0,0
CA,Coca Cola American Canyon,38.190705,-122.275067,0,0,"1,566",0,0,0,0,0,0,0
CA,Cold Canyon 1,35.186667,-120.599444,0,0,0,0,0,"10,462",0,0,0,0
CA,Coleman PH,40.404645,-122.121904,0,0,0,0,"45,303",0,0,0,0,0
CA,Colgate,39.330833,-121.191666,0,0,0,0,"1,090,613",0,0,0,0,0
CA,Colgreen North Shore Solar Farm,33.540124,-115.974771,0,0,0,0,0,0,0,"4,983",0,0
CA,Collierville Powerhouse,38.144636,-120.380497,0,0,0,0,"365,578",0,0,0,0,0
CA,Collins Pine Project,40.303422,-121.244431,0,0,0,0,0,"8,763",0,0,0,0
CA,Colon PV,33.792694,-118.252407,0,0,0,0,0,0,0,"1,542",0,0
CA,"Colton Solar One, LLC",34.093333,-117.319444,0,0,0,0,0,0,0,"4,276",0,0
CA,"Colton Solar Two, LLC",34.042222,-117.361667,0,0,0,0,0,0,0,"1,788",0,0
CA,Columbia 3,35.024722,-118.164167,0,0,0,0,0,0,0,"25,180",0,0
CA,"Columbia Solar Energy, LLC",38.019671,-121.86506,0,0,0,0,0,0,0,"39,313",0,0
CA,Colusa Generating Station,39.3661,-122.27,0,0,"2,986,301",0,0,0,0,0,0,0
CA,Combie South,39.0096,-121.0591,0,0,0,0,"5,441",0,0,0,0,0
CA,Commerce Refuse To Energy,33.9949,-118.1538,0,0,"3,451",0,0,"32,541",0,0,0,0
CA,Community Solar 1,32.982778,-115.481944,0,0,0,0,0,0,0,"11,730",0,0
CA,Con Dios Solar 11,34.26,-116.335278,,,,,,,,,,
CA,Con Dios Solar 3,34.259722,-116.340278,,,,,,,,,,
CA,Control Gorge,37.437921,-118.556988,0,0,0,0,"34,985",0,0,0,0,0
CA,Coolwater,34.8606,-116.8539,,,,,,,,,,
CA,Copco 1,41.978914,-122.335317,0,0,0,0,"73,916",0,0,0,0,0
CA,Copco 2,41.975716,-122.358127,0,0,0,0,"92,720",0,0,0,0,0
CA,Coram Energy LLC,35.075,-118.3417,0,0,0,0,0,0,"11,560",0,0,0
CA,Coram Energy LLC (ECT),35.0583,-118.3417,0,0,0,0,0,0,"26,476",0,0,0
CA,Coram Tehachapi,35.0663,-118.339444,0,0,0,0,0,0,"12,579",0,0,0
CA,Corcoran,36.102307,-119.566516,0,0,0,0,0,0,0,"1,887",0,0
CA,Corcoran Solar,36.138333,-119.573333,0,0,0,0,0,0,0,"50,546",0,0
CA,Corcoran Solar 2,36.141944,-119.581667,0,0,0,0,0,0,0,"50,282",0,0
CA,Corcoran Solar 3,36.15042,-119.58542,0,0,0,0,0,0,0,"52,557",0,0
CA,"CoreSite Real Estate 1656 McCarthy, L.P.",37.405727,-121.916248,0,0,0,0,0,0,0,0,0,0
CA,"CoreSite Real Estate 2901 Coronado, L.P.",37.375089,-121.971728,0,0,0,0,0,0,0,0,0,0
CA,"CoreSite Real Estate 2972 Stender, L.P.",37.376248,-121.970706,0,0,0,0,0,0,0,0,0,0
CA,"CoreSite Real Estate 3032 Coronado, L.P.",37.376181,-121.973097,0,0,0,0,0,0,0,0,0,0
CA,CoreSite Real Estate 55 S. Market Street,37.334151,-121.891622,0,0,0,0,0,0,0,0,0,0
CA,Corona,33.85895,-117.6106,0,0,0,0,"6,533",0,0,0,0,0
CA,"Corona Energy Partners, Ltd",33.8827,-117.5565,,,,,,,,,,
CA,Coronal Lost Hills,35.726667,-119.905833,0,0,0,0,0,0,0,"52,630",0,0
CA,Coronus Adelanto West 1,34.548056,-117.464444,0,0,0,0,0,0,0,"1,219",0,0
CA,Coronus Adelanto West 2,34.548056,-117.464444,0,0,0,0,0,0,0,"3,123",0,0
CA,Coso Energy Developers,36.0019,-117.7886,0,0,0,0,0,0,0,0,"284,810",0
CA,Coso Finance Partners,36.0372,-117.7981,0,0,0,0,0,0,0,0,"480,839",0
CA,Coso Power Developers,36.0192,-117.7917,0,0,0,0,0,0,0,0,"410,113",0
CA,Cosumnes Power Plant,38.338475,-121.123978,0,0,"3,344,030",0,0,"54,748",0,0,0,0
CA,Cottonwood,36.443421,-118.04389,0,0,0,0,"2,775",0,0,0,0,0
CA,"Cottonwood Solar, LLC (City of Corcoran)",36.134444,-119.554444,0,0,0,0,0,0,0,"28,711",0,0
CA,"Cottonwood Solar, LLC (Goose Lake)",35.593611,-119.58,0,0,0,0,0,0,0,"34,260",0,0
CA,"Cottonwood Solar, LLC Cottonwood Carport",38.129759,-122.568158,0,0,0,0,0,0,0,"1,396",0,0
CA,County of San Diego SBRC,32.63266,-117.07775,0,0,0,0,0,0,0,21,0,0
CA,Covanta Delano Energy,35.7144,-119.2337,0,0,0,0,0,0,0,0,0,0
CA,Covanta Mendota,36.755896,-120.365422,0,0,0,0,0,0,0,0,0,0
CA,Covanta Stanislaus Energy,37.3853,-121.141,0,"1,572",0,0,0,"148,446",0,0,0,0
CA,Cove Hydroelectric,40.8713,-121.9487,0,0,0,0,"9,957",0,0,0,0,0
CA,Cow Creek,40.570817,-122.02093,0,0,0,0,"3,785",0,0,0,0,0
CA,Coyote Creek,33.92493,-117.95517,0,0,0,0,0,0,0,0,0,0
CA,Crafton Hills College Solar Farm,34.043056,-117.098889,0,0,0,0,0,0,0,803,0,0
CA,Crazy Horse Solar Project,36.803269,-121.618971,,,,,,,,,,
CA,Creed Energy Center,38.242158,-121.854722,0,0,"12,968",0,0,0,0,0,0,0
CA,Cresta,39.825907,-121.409687,0,0,0,0,"190,017",0,0,0,0,0
CA,Crockett Cogen Project,38.0569,-122.2161,0,0,"1,372,884",0,0,0,0,0,0,0
CA,Crown Cooling Facility,32.967222,-115.5325,0,0,0,0,0,0,0,652,0,0
CA,CSD 2 - Heritage High,37.921944,-121.755556,0,0,0,0,0,0,0,"2,082",0,0
CA,CSD 2- Freedom High,37.969722,-121.719444,0,0,0,0,0,0,0,"1,560",0,0
CA,CSU East Bay,37.658889,-122.059444,0,0,"4,801",0,0,0,0,0,0,0
CA,CSU Fresno Solar Project,36.809841,-119.741665,0,0,0,0,0,0,0,"1,294",0,0
CA,CSU Long Beach Lots 7 & 14,33.78104,-118.11357,0,0,0,0,0,0,0,"7,677",0,0
CA,CSU Northridge Plant,34.243333,-118.530556,0,0,"3,158",0,0,0,0,820,0,0
CA,CSUCI Site Authority,34.161951,-119.047916,0,0,"47,506",0,0,0,0,0,0,0
CA,CSUF Nutwood Solar,33.87912,-117.8887,0,0,0,0,0,0,0,"3,192",0,0
CA,CSUF State College,33.87912,-117.8887,0,0,0,0,0,0,0,"1,576",0,0
CA,CSUF Trigeneration,33.880638,-117.88656,0,0,"28,023",0,0,0,0,"6,200",0,0
CA,CTV Power Purchase Contract Trust,35.0583,-118.3083,0,0,0,0,0,0,"11,812",0,0,0
CA,"Cuyama Solar, LLC",34.901,-119.596,0,0,0,0,0,0,0,"116,575",0,0
CA,Cuyamaca Peak Energy,32.796491,-116.972071,0,0,"14,888",0,0,0,0,0,0,0
CA,Cymric 31X Cogen,35.3639,-119.6592,0,0,"44,634",0,0,0,0,0,0,0
CA,Cymric 36W Cogen,35.3633,-119.6756,0,0,"75,190",0,0,0,0,0,0,0
CA,Cymric 6Z Cogen,35.346102,-119.643431,0,0,"45,207",0,0,0,0,0,0,0
CA,De Sabla,39.869265,-121.631819,0,0,0,0,"59,657",0,0,0,0,0
CA,Deadwood Creek,39.53,-121.095833,0,0,0,0,"1,967",0,0,0,0,0
CA,Deer Creek PH,39.29807,-120.8443,0,0,0,0,"21,010",0,0,0,0,0
CA,Del Ranch Company,33.1646,-115.616,0,0,0,0,0,0,0,0,"335,103",0
CA,"Delano Energy Center, LLC",35.790864,-119.294469,0,0,"5,455",0,0,0,0,0,0,0
CA,Delano Land 1,35.761217,-119.344408,0,0,0,0,0,0,0,"2,046",0,0
CA,"Delta Energy Center, LLC",38.0169,-121.8439,0,0,"3,081,664",0,0,0,0,0,0,0
CA,Depot Park Solar System,38.515,-121.398333,0,0,0,0,0,0,0,"6,084",0,0
CA,Dept of General Services -FTB,38.565,-121.343,0,0,0,0,0,0,0,"5,321",0,0
CA,Desert Green Solar Farm LLC,33.27055,-116.34805,0,0,0,0,0,0,0,"13,485",0,0
CA,"Desert Harvest, LLC",33.8,-115.38,,,,,,,,,,
CA,Desert Hot Springs Solar,33.923056,-116.53,0,0,0,0,0,0,0,"6,228",0,0
CA,Desert Quartzite,33.565,-114.753,,,,,,,,,,
CA,"Desert Sunlight 250, LLC",33.8055,-115.3947,0,0,0,0,0,0,0,"619,921",0,0
CA,"Desert Sunlight 300, LLC",33.823056,-115.393889,0,0,0,0,0,0,0,"724,920",0,0
CA,Desert View Power,33.586,-116.0873,0,0,"3,129",0,0,"326,642",0,0,0,0
CA,DESI-1 Battery Energy Storage Facility,33.799248,-117.873371,0,0,0,0,0,0,0,0,0,0
CA,DESI-2 Battery Storage Facility,33.7357,-117.915286,,,,,,,,,,
CA,Devil Canyon,34.2056,-117.3344,0,0,0,0,"787,419",0,0,0,0,0
CA,DGS Central Utility Plant,38.573889,-121.501389,0,2,0,0,0,0,0,0,0,0
CA,Diablo Canyon,35.211536,-120.855542,0,0,0,"18,213,519",0,0,0,0,0,0
CA,Diablo Energy Storage,38.028792,-121.900596,,,,,,,,,,
CA,Diablo Winds LLC,37.763653,-121.614392,0,0,0,0,0,0,"63,301",0,0,0
CA,Diamond Valley Lake,33.6808,-117.0698,0,0,0,0,"3,725",0,0,0,0,0
CA,Diamond Valley Solar Project,33.713056,-117.0725,0,0,0,0,0,0,0,"2,396",0,0
CA,Difwind Farms Ltd I,33.898856,-116.57281,0,0,0,0,0,0,"6,996",0,0,0
CA,Difwind Farms Ltd II,33.893685,-116.567811,0,0,0,0,0,0,"1,398",0,0,0
CA,Difwind Farms Ltd V,33.887401,-116.578231,0,0,0,0,0,0,"8,793",0,0,0
CA,Difwind Farms Ltd VI,35.0506,-118.1714,0,0,0,0,0,0,"34,847",0,0,0
CA,Difwind Farms Ltd VII,37.7581,-121.5253,,,,,,,,,,
CA,Difwind Farms Ltd VIII,35.0506,-118.1714,,,,,,,,,,
CA,Dillon Wind LLC,33.9393,-116.5527,0,0,0,0,0,0,"146,670",0,0,0
CA,Dinosaur Point,37.0478,-121.1708,0,0,0,0,0,0,"9,474",0,0,0
CA,Dinuba Energy,36.571485,-119.419176,0,0,0,0,0,0,0,0,0,0
CA,Dinuba Wastewater Treatment Plant,36.538056,-119.426388,0,0,0,0,0,0,0,"1,812",0,0
CA,Dion R Holm,37.896649,-119.9675,0,0,0,0,"248,059",0,0,0,0,0
CA,Disney Prospect,34.083387,-118.43378,0,0,0,0,0,0,0,0,0,0
CA,Division,32.681667,-117.120277,,,,,,,,,,
CA,Division 1,34.708333,-118.130556,0,0,0,0,0,0,0,"2,764",0,0
CA,Division 2,34.708333,-118.130556,0,0,0,0,0,0,0,"1,947",0,0
CA,Division 3,34.708333,-118.130556,0,0,0,0,0,0,0,"2,063",0,0
CA,Dome Project,35.220833,-119.583056,0,0,"37,921",0,0,0,0,0,0,0
CA,Dominguez Plant,33.8431,-118.2347,0,0,0,0,0,0,0,0,0,"12,289"
CA,Don Lee BESS 1 LLC,33.128685,-117.12118,,,,,,,,,,
CA,Don Pedro,37.695994,-120.420152,0,0,0,0,"293,638",0,0,0,0,0
CA,Donald Von Raesfeld,37.3767,-121.9508,0,0,"861,341",0,0,0,0,0,0,0
CA,Donnells,38.246656,-120.034072,0,0,0,0,"129,198",0,0,0,0,0
CA,Double C Generation Limited Partnership,35.5005,-119.046,0,0,"26,465",0,0,0,0,0,0,0
CA,Drews Generating Facility,34.0609,-117.3532,0,0,777,0,0,0,0,0,0,0
CA,Drop 1,32.711611,-114.942666,0,0,0,0,"1,664",0,0,0,0,0
CA,Drop 2 (CA),32.705435,-115.030975,0,0,0,0,"43,434",0,0,0,0,0
CA,Drop 3 (CA),32.705428,-115.126103,0,0,0,0,"41,904",0,0,0,0,0
CA,Drop 4,32.705341,-115.219067,0,0,0,0,"3,283",0,0,0,0,0
CA,Drop 5,32.673097,-115.392026,0,0,0,0,"11,264",0,0,0,0,0
CA,Drum 1,39.256873,-120.767437,0,0,0,0,"85,904",0,0,0,0,0
CA,Drum 2,39.257388,-120.767046,0,0,0,0,"231,243",0,0,0,0,0
CA,DSH (CA) - Coalinga State Hospital,36.13726,-120.218453,0,0,0,0,0,0,0,"4,901",0,0
CA,DTE Stockton,37.943633,-121.330433,0,0,770,0,0,"370,425",0,0,0,0
CA,Dulles,34.030119,-117.517753,0,0,0,0,0,0,0,"3,202",0,0
CA,Dutch Flat,39.216985,-120.835587,0,0,0,0,"69,559",0,0,0,0,0
CA,Dutch Flat 2,39.2184,-120.8352,0,0,0,0,"68,557",0,0,0,0,0
CA,Dutch Wind Energy,33.8942,-116.5603,0,0,0,0,0,0,"20,903",0,0,0
CA,Dyer Road,37.7392,-121.4322,,,,,,,,,,
CA,Dynegy Oakland Power Plant,37.79675,-122.28185,0,"3,852",0,0,0,0,0,0,0,0
CA,E F Oxnard Energy Facility,34.1958,-119.1664,0,0,"157,062",0,0,0,0,0,0,0
CA,E&B Resources,35.534584,-119.060029,0,0,0,0,0,0,0,"2,292",0,0
CA,EAFB - North Base,34.9325,-117.907222,0,0,0,0,0,0,0,"2,535",0,0
CA,EAFB - South Base,34.917222,-117.900278,0,0,0,0,0,0,0,"2,453",0,0
CA,East Highline,32.699451,-115.28245,0,0,0,0,"4,047",0,0,0,0,0
CA,East Portal Generator,34.2619,-118.6242,0,0,0,0,"5,559",0,0,0,0,0
CA,East Winds Project,33.890913,-116.541515,0,0,0,0,0,0,"7,425",0,0,0
CA,EDF Renewable Windfarm V Inc,38.1167,-121.8333,0,0,0,0,0,0,"3,484",0,0,0
CA,Edom Hills Project 1 LLC,33.881667,-116.460278,0,0,0,0,0,0,"37,618",0,0,0
CA,EDPR CA Solar Park VI LLC (CA),36.62543,-120.378926,,,,,,,,,,
CA,Edward C Hyatt,39.542985,-121.492188,0,0,0,0,"1,291,387",0,0,0,0,0
CA,Edwards Air Force Base,34.9077,-117.9206,0,0,0,0,0,0,0,"2,240",0,0
CA,El Cajon,32.7958,-116.9722,,,,,,,,,,
CA,El Cajon Energy Center,32.796106,-116.972073,0,0,"16,736",0,0,0,0,0,0,0
CA,El Cajon Energy Storage,32.8115,-117.050546,0,0,0,0,0,0,0,0,0,"-1,164"
CA,El Centro,32.802222,-115.54,0,0,"753,622",0,0,0,0,0,0,"-3,159"
CA,El Dorado,38.793574,-120.619152,0,0,0,0,"59,185",0,0,0,0,0
CA,El Nido Facility,37.1867,-120.4903,0,0,75,0,0,"63,268",0,0,0,0
CA,El Segundo,33.910556,-118.425,0,0,"1,054,778",0,0,0,0,0,0,0
CA,El Segundo Cogen,33.9058,-118.4031,0,0,"1,260,622",0,0,0,0,0,0,"4,703"
CA,ELACC Photovoltaic Power Facility,34.040278,-118.148056,,,,,,,,,,
CA,Eland 1 Solar Farm,35.2237,-117.977,,,,,,,,,,
CA,Eland 2 Solar Farm,35.2167,-117.977,,,,,,,,,,
CA,Electra,38.330985,-120.669901,0,0,0,0,"316,535",0,0,0,0,0
CA,Elevation Solar C,34.730263,-118.30425,0,0,0,0,0,0,0,"115,937",0,0
CA,Elk Hills Cogen,35.479146,-119.737464,0,0,0,0,0,0,0,0,0,0
CA,Elk Hills Power,35.280318,-119.470707,0,0,"3,797,551",0,0,0,0,0,0,0
CA,Elkhorn Battery Energy Storage System,36.808039,-121.781788,,,,,,,,,,
CA,Ellwood,34.431419,-119.900055,0,0,"6,212",0,0,0,0,0,0,0
CA,Elmore Company,33.1777,-115.6033,0,0,0,0,0,0,0,0,"308,650",0
CA,Encina Water Pollution Control,33.1165,-117.3215,0,0,"1,077",0,0,"13,911",0,0,0,0
CA,Energy Center,34.063056,-117.163889,0,0,"2,915",0,0,0,0,0,0,0
CA,Energy Nuevo Storage Farm,36.702036,-119.883003,,,,,,,,,,
CA,Enerparc CA1 LLC,36.831667,-121.404167,0,0,0,0,0,0,0,"3,664",0,0
CA,"Enerparc CA2, LLC",39.69898,-122.175583,0,0,0,0,0,0,0,"3,448",0,0
CA,Equilon Los Angeles Refining,33.791667,-118.234722,0,0,"110,125",0,0,0,0,0,0,"273,695"
CA,Equinix Caspian Dr. Fuel Cell,37.415092,-122.05211,0,0,0,0,0,0,0,0,0,0
CA,Equinix Douglas St. Fuel Cell,33.9212,-118.38453,0,0,0,0,0,0,0,0,0,0
CA,Equinix Great Oaks Blvd. Fuel Cell,37.24097,-121.78259,0,0,0,0,0,0,0,0,0,0
CA,Equinix Lundy Ave. Fuel Cell,37.38846,-121.88896,0,0,0,0,0,0,0,0,0,0
CA,Equinix Maple Ave. Fuel Cell,33.92542,-118.39463,0,0,0,0,0,0,0,0,0,0
CA,Equinix San Jose,37.241713,-121.781363,0,0,"7,872",0,0,0,0,0,0,0
CA,"Escondido Energy Center, LLC",33.1261,-117.1172,0,0,"25,261",0,0,0,0,0,0,0
CA,Escondido Energy Storage,33.124446,-117.114274,0,0,0,0,0,0,0,0,0,"-5,662"
CA,ESI Project,37.739167,-121.432222,,,,,,,,,,
CA,Etiwanda,34.10345,-117.5257,0,0,0,0,"56,038",0,0,0,0,0
CA,Etiwanda Generating Station,34.09118,-117.52663,0,0,0,0,0,0,0,0,0,0
CA,Exchequer,37.584345,-120.26859,0,0,0,0,"240,272",0,0,0,0,0
CA,Exeter Solar,36.2675,-119.128581,0,0,0,0,0,0,0,"6,736",0,0
CA,Expressway Solar A,34.582222,-117.341667,0,0,0,0,0,0,0,"4,934",0,0
CA,Expressway Solar B,34.583333,-117.340278,0,0,0,0,0,0,0,"4,358",0,0
CA,Expressway Solar C2,34.584444,-117.341389,0,0,0,0,0,0,0,"3,713",0,0
CA,ExxonMobil Santa Ynez Facility,34.464819,-120.044365,,,,,,,,,,
CA,FAA NorCal TRACON,38.559533,-121.257556,0,0,0,0,0,0,0,"1,630",0,0
CA,Fairhaven Power,40.7995,-124.2028,0,0,"2,054",0,0,"37,565",0,0,0,0
CA,Fall Creek,41.985605,-122.360455,0,0,0,0,"3,931",0,0,0,0,0
CA,Fallbrook Energy Storage,33.384244,-117.235322,,,,,,,,,,
CA,Farad,39.394267,-120.021732,,,,,,,,,,
CA,Farmersville,36.19,-119.12,0,0,0,0,0,0,0,"7,976",0,0
CA,Feather River Energy Center,39.109344,-121.60931,0,0,"33,113",0,0,0,0,0,0,0
CA,Five Points Solar Park,36.386944,-120.236667,0,0,0,0,0,0,0,"162,129",0,0
CA,Five Points Solar Station,36.400278,-120.103333,0,0,0,0,0,0,0,"28,699",0,0
CA,FLEX Gibraltar,37.417288,-121.894109,0,0,0,0,0,0,0,0,0,0
CA,Folsom,38.70675,-121.158443,0,0,0,0,"583,368",0,0,0,0,0
CA,Folsom SP and CSP Sacramento,38.687,-121.16,,,,,,,,,,
CA,Fontana,34.155162,-117.397119,0,0,0,0,"2,545",0,0,0,0,0
CA,Foothill,34.318248,-118.494449,0,0,0,0,"-8,344",0,0,0,0,0
CA,Foothill Feeder,34.5148,-118.6092,0,0,0,0,"48,539",0,0,0,0,0
CA,Foothill Solar Project,34.2738,-118.3454,,,,,,,,,,
CA,Forbestown,39.551012,-121.278784,0,0,0,0,"84,275",0,0,0,0,0
CA,"Forever 21 Retail, Inc.",34.071389,-118.196111,0,0,0,0,0,0,0,"1,560",0,0
CA,Forks of Butte Hydro Project,39.869284,-121.631865,0,0,0,0,"29,769",0,0,0,0,0
CA,Foster Wheeler Martinez,38.0244,-122.0589,0,0,"673,306",0,0,0,0,0,0,0
CA,Foundation AB,38.232222,-122.092778,0,0,0,0,0,0,"2,581",0,0,0
CA,Foundation California Training Facility,36.464,-121.382,0,0,0,0,0,0,"1,146",0,0,0
CA,Foundation CDCR LAC,34.691,-118.221,0,0,0,0,0,0,"4,268",0,0,0
CA,Foundation Cemex BMQ,34.623056,-117.1125,0,0,0,0,0,0,"3,293",0,0,0
CA,Foundation Cemex Madison,38.692778,-121.9325,0,0,0,0,0,0,"1,701",0,0,0
CA,Foundation Cemex River Plant,34.561944,-117.307222,0,0,0,0,0,0,"2,939",0,0,0
CA,Foundation Dole Fresh Vegetables,36.459294,-121.350083,,,,,,,,,,
CA,Foundation IE,34.084722,-117.529444,0,0,0,0,0,0,395,0,0,0
CA,Foundation Mann Packing,36.504,-121.454,,,,,,,,,,
CA,Foundation NWNA,33.914167,-116.749167,0,0,0,0,0,0,"12,046",0,0,0
CA,Foundation RRM,33.917222,-116.815,0,0,0,0,0,0,"9,589",0,0,0
CA,Foundation SaIinas Valley State Prison,36.474,-121.371,0,0,0,0,0,0,767,0,0,0
CA,Foundation Scheid Vineyards,36.274508,-121.191589,0,0,0,0,0,0,"3,812",0,0,0
CA,Foundation ST,37.714167,-121.521666,0,0,0,0,0,0,"2,662",0,0,0
CA,Foundation Superior Farms,38.42,-121.818056,0,0,0,0,0,0,"1,592",0,0,0
CA,Foundation Wal-Mart Red Bluff,40.111111,-122.193889,0,0,0,0,0,0,"1,638",0,0,0
CA,Four Mile Hill,41.6014,-121.625,,,,,,,,,,
CA,FPL Energy Montezuma Winds LLC,38.163581,-121.79661,0,0,0,0,0,0,"98,264",0,0,0
CA,Francisco St. Solar,33.8482,-118.3055,0,0,0,0,0,0,0,62,0,0
CA,Frankenheimer Power Plant,37.830378,-120.806972,0,0,0,0,"11,587",0,0,0,0,0
CA,Franklin (CA),34.103931,-118.413377,0,0,0,0,-11,0,0,0,0,0
CA,Franklin Templeton San Mateo,37.5425,-122.292778,0,0,"7,098",0,0,0,0,0,0,0
CA,Freeway Springs,33.892614,-118.037564,0,0,0,0,0,0,0,"3,381",0,0
CA,French Meadows,39.077971,-120.406069,0,0,0,0,"38,058",0,0,0,0,0
CA,"Fresno Cogeneration Partners, LP",36.617022,-120.099846,0,0,"5,887",0,0,0,0,0,0,0
CA,Fresno Solar,36.616846,-120.105144,0,0,0,0,0,0,0,"6,226",0,0
CA,Friant Hydro Facility,36.997694,-119.703451,0,0,0,0,"125,902",0,0,0,0,0
CA,Frito-Lay Cogen Plant,35.395063,-119.321633,0,0,"26,593",0,0,0,0,0,0,0
CA,Frontier HS Solar Project,35.41824,-119.14888,0,0,0,0,0,0,0,70,0,0
CA,Frontier Solar LLC,37.379919,-121.130661,0,0,0,0,0,0,0,"53,191",0,0
CA,FRV SI Transport Solar LP,38.4869,-121.3911,0,0,0,0,0,0,0,"1,625",0,0
CA,Fullerton Mill CHP,33.861667,-117.893056,0,0,"75,513",0,0,0,0,0,0,0
CA,G2 Energy Hay Rd,38.314722,-121.833611,0,0,0,0,0,"12,912",0,0,0,0
CA,G2 Energy Ostrom Road LLC,39.0728,-121.3992,0,0,0,0,0,"26,889",0,0,0,0
CA,Gap Pacific Distribution Center,36.7839,-119.7094,0,0,0,0,0,0,0,"1,906",0,0
CA,Garnet Solar Generation Station I LLC,33.8906,-116.5431,0,0,0,0,0,0,0,"8,410",0,0
CA,Garnet Wind Energy Center,33.9053,-116.5825,0,0,0,0,0,0,"15,862",0,0,0
CA,Gas Utilization Facility,32.679172,-117.246698,0,0,0,0,0,"16,293",0,0,0,0
CA,Gates Peaker,36.152715,-120.148245,,,,,,,,,,
CA,Gates Solar Station,36.176389,-120.114167,0,0,0,0,0,0,0,"43,311",0,0
CA,Gateway Generating Station,38.0175,-121.7587,0,0,"2,929,751",0,0,0,0,0,0,0
CA,Gavilan District College Solar Project,37.003832,-121.593567,0,0,0,0,0,0,0,350,0,0
CA,Gaviota Oil Plant,34.475067,-120.205107,0,0,0,0,0,0,0,0,0,0
CA,GE - Tehachapi,35.155278,-118.369444,0,0,0,0,0,0,"3,879",0,0,0
CA,Genentech Vacaville Meter #1,38.390756,-121.94777,0,0,0,0,0,0,0,"13,088",0,0
CA,Genentech-Oceanside,33.211095,-117.299593,0,0,0,0,0,0,0,"7,149",0,0
CA,Genesis Solar Energy Project,33.665,-114.998055,0,0,0,0,0,0,0,"623,142",0,0
CA,Geo East Mesa II,32.7757,-115.2637,0,0,0,0,0,0,0,0,0,0
CA,Geo East Mesa III,32.7757,-115.2637,0,0,0,0,0,0,0,0,"97,553",0
CA,Geothermal 1,38.752,-122.7195,0,0,0,0,0,0,0,0,"433,936",0
CA,Geothermal 2,38.7492,-122.7117,0,0,0,0,0,0,0,0,"352,294",0
CA,Geysers Unit 5-20,38.777,-122.745,0,0,0,0,0,0,0,0,"4,674,308",0
CA,Gianera,37.401,-121.96867,0,0,"8,019",0,0,0,0,0,0,0
CA,Giffen,36.530278,-120.316111,0,0,0,0,0,0,0,"18,948",0,0
CA,Giffen Solar Park,36.544722,-120.316111,0,0,0,0,0,0,0,"36,960",0,0
CA,"Gilroy Energy Center, LLC",36.999,-121.5363,0,0,"25,659",0,0,0,0,0,0,0
CA,Glenarm,34.126,-118.1494,0,0,"107,233",0,0,0,0,0,0,0
CA,Glendale Battery Energy Storage System,34.162327,-118.283684,0,0,0,0,0,0,0,0,0,90
CA,Goal Line,33.1185,-117.0995,0,0,"18,142",0,0,0,0,0,0,0
CA,Golden Acorn Casino,32.702107,-116.354587,0,0,0,0,0,0,"4,112",0,0,0
CA,"Golden Fields Solar I, LLC",34.839012,-118.386843,0,0,0,0,0,0,0,"152,651",0,0
CA,Golden Hills North Wind Energy Center,37.769189,-121.630163,0,0,0,0,0,0,"181,456",0,0,0
CA,Golden Hills Wind,37.713311,-121.640353,0,0,0,0,0,0,"306,466",0,0,0
CA,Golden Springs Building C-1,33.914167,-118.053611,0,0,0,0,0,0,0,"1,796",0,0
CA,Golden Springs Building D,33.911944,-118.052222,0,0,0,0,0,0,0,"1,938",0,0
CA,Goose Haven Energy Center,38.226752,-121.843271,0,0,"12,447",0,0,0,0,0,0,0
CA,Gosselin Hydro Plant,40.37,-123.4347,0,0,0,0,"4,557",0,0,0,0,0
CA,GPS Cabazon Wind LLC,33.914986,-116.71026,0,0,0,0,0,0,"63,695",0,0,0
CA,Granger,33.2704,-117.0588,0,0,0,0,0,0,0,"7,748",0,0
CA,Grapeland Generating Station,34.0903,-117.5343,0,0,"9,892",0,0,0,0,0,0,0
CA,Grassland 1&2 Solar Project,38.500278,-121.694167,0,0,0,0,0,0,0,"4,746",0,0
CA,Grassland 3&4 Solar Project,38.500278,-121.694167,0,0,0,0,0,0,0,"4,737",0,0
CA,Grayson Power Plant,34.1556,-118.2782,0,0,"119,087",0,0,"21,693",0,0,0,0
CA,"Great Valley Solar Portfolio Holdings, LLC",36.581182,-120.37957,0,0,0,0,0,0,0,"532,455",0,0
CA,Green Acres Solar Facility 1,38.282021,-121.464676,0,0,0,0,0,0,0,"6,354",0,0
CA,Green Acres Solar Facility 2,38.28357,-121.461264,0,0,0,0,0,0,0,"2,171",0,0
CA,Green Beanworks B PV,34.688042,-117.989541,0,0,0,0,0,0,0,45,0,0
CA,Green Beanworks C PV,34.597,-117.931,0,0,0,0,0,0,0,"2,654",0,0
CA,Green Beanworks D PV,34.654976,-118.08215,0,0,0,0,0,0,0,"2,428",0,0
CA,Green Power I,33.9014,-116.7167,0,0,0,0,0,0,"16,676",0,0,0
CA,Greenleaf One,39.052922,-121.696072,0,0,"67,014",0,0,0,0,0,0,0
CA,Greg Avenue,34.20795,-118.3516,0,0,0,0,0,0,0,0,0,0
CA,Gridley Main,39.373333,-121.684167,0,0,0,0,0,0,0,"1,957",0,0
CA,Gridley Main Two,39.373333,-121.681667,0,0,0,0,0,0,0,"3,862",0,0
CA,Grizzly,39.889287,-121.279173,0,0,0,0,"19,337",0,0,0,0,0
CA,Grossmont Hospital,32.77973,-117.006397,0,0,"29,556",0,0,0,0,0,0,0
CA,GRS American Canyon,38.1419,-122.2439,,,,,,,,,,
CA,GRS Newby I,37.4567,-121.9419,,,,,,,,,,
CA,Guadalupe Solar Farm,37.269039,-121.861079,0,0,0,0,0,0,0,"1,669",0,0
CA,Guernsey Solar Station,36.163889,-119.650556,0,0,0,0,0,0,0,"43,717",0,0
CA,H. Gonzales,33.9986,-118.2219,0,0,"3,994",0,0,0,0,0,0,0
CA,Haas,36.927424,-119.02025,0,0,0,0,"361,336",0,0,0,0,0
CA,Haiwee,36.109722,-117.956667,0,0,0,0,512,0,0,0,0,0
CA,Halsey,38.956985,-121.041932,0,0,0,0,"38,014",0,0,0,0,0
CA,Hamilton Branch,40.268712,-121.089479,0,0,0,0,"4,508",0,0,0,0,0
CA,Hanford 1 and 2,36.306667,-119.629167,0,0,0,0,0,0,0,"5,557",0,0
CA,Hanford Energy Park Peaker,36.270072,-119.648055,0,0,"15,605",0,0,0,0,0,0,0
CA,Harbor Cogen,33.7771,-118.2303,0,0,0,0,0,0,0,0,0,0
CA,Harbor Generating Station,33.7706,-118.2656,0,0,"37,140",0,0,0,0,0,0,0
CA,Hat Creek 1,40.929297,-121.544462,0,0,0,0,"31,285",0,0,0,0,0
CA,Hat Creek 2,40.960675,-121.548657,0,0,0,0,"41,999",0,0,0,0,0
CA,Hatchet Creek Project,40.874144,-121.920428,0,0,0,0,"12,892",0,0,0,0,0
CA,Hatchet Ridge Wind Project,40.8981,-121.8036,0,0,0,0,0,0,"258,503",0,0,0
CA,Haynes Generating Station,33.764741,-118.09913,0,0,"3,131,593",0,0,0,0,0,0,0
CA,Haypress,39.565677,-120.581684,0,0,0,0,"16,183",0,0,0,0,0
CA,Hayworth Solar,35.325278,-118.878611,0,0,0,0,0,0,0,"60,864",0,0
CA,Heber Geothermal,32.7146,-115.518,0,0,0,0,0,0,0,0,"312,351",0
CA,Heber Solar,32.7125,-115.540556,0,0,0,0,0,0,0,"25,648",0,0
CA,HEBT Irvine 1,33.713489,-117.852086,0,0,0,0,0,0,0,0,0,0
CA,HEBT Irvine 2,33.665246,-117.768222,0,0,0,0,0,0,0,0,0,0
CA,HEBT WLA 1,33.670484,-117.644234,,,,,,,,,,
CA,Hecate Energy Beacon Solar 1,35.269444,-118.014444,0,0,0,0,0,0,0,"143,041",0,0
CA,Hecate Energy Beacon Solar 3,35.253056,-118.014722,0,0,0,0,0,0,0,"143,037",0,0
CA,Hecate Energy Beacon Solar 4,35.253611,-118.026944,0,0,0,0,0,0,0,"125,337",0,0
CA,Hecate Energy Johanna Facility,33.714672,-117.853061,,,,,,,,,,
CA,Heliocentric,34.65434,-117.971004,0,0,0,0,0,0,0,"2,950",0,0
CA,Hellyer Solar Farm,37.286958,-121.81508,,,,,,,,,,
CA,Helms Energy Center,36.549167,-120.111111,,,,,,,,,,
CA,Helms Pumped Storage,37.029304,-118.968252,0,0,0,0,"-412,780",0,0,0,0,0
CA,Helzel & Schwarzhoff 86,35.0925,-118.3952,0,0,0,0,0,0,"3,799",0,0,0
CA,Helzel & Schwarzhoff 88 Wind Farm,35.0908,-118.3936,0,0,0,0,0,0,"1,566",0,0,0
CA,Henrietta D Energy Storage LLC,36.228872,-119.904686,,,,,,,,,,
CA,Henrietta Peaker Plant,36.2397,-119.9044,0,0,"32,903",0,0,0,0,0,0,0
CA,Henrietta Solar Project,36.218806,-119.805833,0,0,0,0,0,0,0,"254,373",0,0
CA,Hesperia,34.435,-117.378056,0,0,0,0,0,0,0,"3,200",0,0
CA,Hickman,37.621536,-120.746247,0,0,0,0,"4,597",0,0,0,0,0
CA,High Desert Power Project,34.5953,-117.3647,0,0,"3,019,302",0,0,0,0,0,0,0
CA,High Sierra Cogeneration Plant,40.4128,-120.4774,0,0,"34,849",0,0,0,0,0,0,0
CA,High Sierra Limited,35.509041,-119.030546,0,0,"28,059",0,0,0,0,0,0,0
CA,High Winds LLC,38.1381,-121.8053,0,0,0,0,0,0,"345,306",0,0,0
CA,HL Power,40.368338,-120.264848,0,0,245,0,0,"190,925",0,0,0,0
CA,HL Solar,40.373,-120.262,,,,,,,,,,
CA,Hoag Hospital Cogen Plant,33.622778,-117.936389,0,0,"5,452",0,0,0,0,0,0,0
CA,Hollister Solar LLC,36.8625,-121.428889,0,0,0,0,0,0,0,"4,100",0,0
CA,Honda Torrance,33.838056,-118.315,0,0,"6,954",0,0,0,0,0,0,0
CA,Horn,34.708889,-118.274167,0,0,0,0,0,0,0,"4,158",0,0
CA,Houweling Nurseries,34.179722,-119.083056,0,0,"53,349",0,0,0,0,0,0,0
CA,Hudson Ranch Power II LLC,33.204444,-115.556667,,,,,,,,,,
CA,Humboldt Bay,40.7415,-124.2103,0,"1,799","382,063",0,0,0,0,0,0,0
CA,Humboldt Sawmill Company,40.4728,-124.1014,0,271,0,0,0,"109,866",0,0,0,0
CA,Hunters Point,37.733611,-122.389722,,,,,,,,,,
CA,Huron Solar Station,36.181389,-120.030555,0,0,0,0,0,0,0,"41,313",0,0
CA,Hybrid Holdings 1 Capistrano,33.511644,-117.661225,,,,,,,,,,
CA,Hyperion Treatment Plant CHP Plant,33.9254,-118.4298,0,0,"23,653",0,0,"127,446",0,0,0,0
CA,IKEA Tejon 345,34.975278,-118.946944,0,0,0,0,0,0,0,"2,873",0,0
CA,Imperial Solar Energy Center South,32.663289,-115.658284,0,0,0,0,0,0,0,"274,473",0,0
CA,Imperial Solar Energy Center West,32.772225,-115.779311,0,0,0,0,0,0,0,"377,263",0,0
CA,"Imperial Valley Solar Co (IVSC) 2, LLC",33.252222,-115.4975,0,0,0,0,0,0,0,"48,557",0,0
CA,Imperial Valley Solar Company 1 LLC,33.245833,-115.496667,0,0,0,0,0,0,0,"43,915",0,0
CA,"Imperial Valley Solar, LLC",32.671099,-115.587265,0,0,0,0,0,0,0,"493,285",0,0
CA,Improvement Dst No. 4,35.402778,-119.038611,0,0,0,0,0,0,0,"1,469",0,0
CA,Indian Valley Dam Hydro Project,39.0788,-122.535556,0,0,0,0,"3,477",0,0,0,0,0
CA,Indigo Generation Facility,33.910873,-116.552994,0,0,"33,376",0,0,0,0,0,0,0
CA,Industry MetroLink PV 1,34.008661,-117.845603,0,0,0,0,0,0,0,"2,853",0,0
CA,Industry Solar Power Generation Station 1 LLC,34.553056,-117.456944,0,0,0,0,0,0,0,"4,158",0,0
CA,Ingredion Stockton,37.9128,-121.2614,0,0,"51,905",0,0,0,0,0,0,0
CA,Inland Empire Energy Center,33.738839,-117.170369,0,0,"201,502",0,0,0,0,0,0,0
CA,Inskip,40.400988,-121.965502,0,0,0,0,0,0,0,0,0,0
CA,Intel Folsom,38.645119,-121.172999,0,0,0,0,0,0,0,"1,646",0,0
CA,Intel Folsom Phase 2,38.643611,-121.163889,0,0,0,0,0,0,0,"1,663",0,0
CA,Intel Folsom Phase 3,38.645961,-121.162623,0,0,0,0,0,0,0,"9,077",0,0
CA,Intel Santa Clara,37.384745,-121.963808,0,0,"7,413",0,0,0,0,0,0,0
CA,Iron Gate,41.932981,-122.43678,0,0,0,0,"88,987",0,0,0,0,0
CA,Ironwood Solar LLC,33.565,-114.918056,0,0,0,0,0,0,0,"9,475",0,0
CA,Isabella Hydro Project,35.6439,-118.4822,0,0,0,0,"18,700",0,0,0,0,0
CA,ISH Solar Hospital Downey,33.921667,-118.124444,0,0,0,0,0,0,0,"1,418",0,0
CA,ISH Solar Hospital SDMC,32.791667,-117.095277,0,0,0,0,0,0,0,"1,389",0,0
CA,Ivanhoe Solar,36.3875,-119.255,0,0,0,0,0,0,0,"6,408",0,0
CA,Ivanpah 1,35.533056,-115.4525,0,0,"11,334",0,0,0,0,"231,142",0,0
CA,Ivanpah 2,35.556111,-115.468611,0,0,"13,045",0,0,0,0,"264,009",0,0
CA,Ivanpah 3,35.580833,-115.4825,0,0,"9,988",0,0,0,0,"266,338",0,0
CA,IVC Solar,32.83186,-115.506629,0,0,0,0,0,0,0,"3,463",0,0
CA,J S Eastwood,37.147926,-119.2567,0,0,0,0,"234,070",0,0,0,0,0
CA,J&A-Santa Maria II LLC,34.9494,-120.3803,,,,,,,,,,
CA,J.R. Simplot Company,37.806944,-121.2775,0,0,0,0,0,0,0,0,0,"11,371"
CA,Jacumba Solar Farm,32.6212,-116.12896,0,0,0,0,0,0,0,"50,245",0,0
CA,James B Black,40.992295,-121.975182,0,0,0,0,"543,811",0,0,0,0,0
CA,Jaybird,38.83405,-120.53176,0,0,0,0,"394,703",0,0,0,0,0
CA,John L. Featherstone Plant,33.204635,-115.573303,0,0,0,0,0,0,0,0,"415,994",0
CA,Jones Fork,38.850283,-120.381883,0,0,0,0,"14,250",0,0,0,0,0
CA,Judge F Carr,40.646934,-122.626973,0,0,0,0,"209,392",0,0,0,0,0
CA,Juniper Networks Sunnyvale,37.406944,-122.026944,0,0,"7,364",0,0,0,0,0,0,0
CA,Kaiser Deer Valley Rd. Fuel Cell,37.95169,-121.77182,0,0,0,0,0,0,0,0,0,0
CA,Kaiser Downey,33.919167,-118.128611,0,0,"7,950",0,0,0,0,0,0,0
CA,Kaiser East La Palma Ave. Fuel Cell,33.85098,-117.84531,0,0,0,0,0,0,0,0,0,0
CA,Kaiser Napa Valley Corporate Dr Fuel Cell,38.25477,-122.27305,0,0,0,0,0,0,0,0,0,0
CA,Kaiser Ontario,34.0325,-117.608889,0,0,"8,065",0,0,0,0,0,0,0
CA,Kaiser Owens Dr. Fuel Cell,37.69923,-121.89419,0,0,0,0,0,0,0,0,0,0
CA,Kanaka,39.558897,-121.296117,0,0,0,0,0,0,0,0,0,0
CA,Karen Avenue Wind Farm,33.92194,-116.56222,0,0,0,0,0,0,"31,227",0,0,0
CA,Kaweah 1,36.465066,-118.862023,0,0,0,0,"4,464",0,0,0,0,0
CA,Kaweah 2,36.461326,-118.87988,0,0,0,0,"6,046",0,0,0,0,0
CA,Kaweah 3,36.486059,-118.835645,0,0,0,0,"11,794",0,0,0,0,0
CA,Kaweah Delta District Hospital,36.3275,-119.2947,0,0,"19,060",0,0,0,0,0,0,0
CA,Kearny,32.834,-117.1338,,,,,,,,,,
CA,Kearny Mesa Storage LLC,32.815256,-117.126079,,,,,,,,,,
CA,Kekawaka Power House,40.0941,-123.508983,0,0,0,0,"7,587",0,0,0,0,0
CA,Kellogg's - San Jose,37.356389,-121.871944,0,0,"6,390",0,0,0,0,0,0,0
CA,Kelly Ridge,39.531784,-121.491247,0,0,0,0,"31,487",0,0,0,0,0
CA,Kerckhoff,37.092486,-119.552826,0,0,0,0,0,0,0,0,0,0
CA,Kerckhoff 2,37.071846,-119.558008,0,0,0,0,"326,621",0,0,0,0,0
CA,Kern Canyon,35.44072,-118.796498,0,0,0,0,0,0,0,0,0,0
CA,Kern Front Limited,35.51647,-119.040128,0,0,"18,945",0,0,0,0,0,0,0
CA,Kern Oil & Refining Co,35.295556,-118.918333,0,0,"31,436",0,0,0,0,0,0,0
CA,Kern River 1,35.460303,-118.77959,0,0,0,0,"160,352",0,0,0,0,0
CA,Kern River 3,35.776185,-118.436233,0,0,0,0,"120,120",0,0,0,0,0
CA,Kern River Cogeneration,35.4515,-118.9849,0,0,"729,451",0,0,0,0,0,0,0
CA,Kern River Eastridge Cogen,35.4406,-118.9617,0,0,"212,906",0,0,0,0,0,0,0
CA,Kern River Fee A Cogen,35.459849,-119.013573,,,,,,,,,,
CA,Kern River Fee B Cogen,35.440481,-119.007726,,,,,,,,,,
CA,Kern River Fee C Cogen,35.464253,-118.996337,,,,,,,,,,
CA,Keswick,40.611858,-122.446441,0,0,0,0,"325,206",0,0,0,0,0
CA,Kettering Solar 1,34.700278,-118.123611,0,0,0,0,0,0,0,"2,024",0,0
CA,Kettering Solar 2,34.700278,-118.123611,0,0,0,0,0,0,0,"2,042",0,0
CA,Kettleman Solar,35.99,-120.12,,,,,,,,,,
CA,Kettleman Solar -Centaurus,36.050833,-119.9475,0,0,0,0,0,0,0,"53,909",0,0
CA,Kettleman Solar Project,38.12139,-121.14122,0,0,0,0,0,0,0,"2,231",0,0
CA,Kiefer Landfill,38.5136,-121.1944,0,0,0,0,0,"69,342",0,0,0,0
CA,Kilarc,40.677827,-121.873253,0,0,0,0,"8,351",0,0,0,0,0
CA,Kilroy Solar,32.936137,-117.234157,0,0,0,0,0,0,0,"1,869",0,0
CA,King City Peaking,36.224758,-121.124633,0,0,"8,584",0,0,0,0,0,0,0
CA,King City Power Plant,36.225,-121.1278,0,0,"374,693",0,0,0,0,0,0,0
CA,Kingbird A Solar LLC,34.819,-118.432,0,0,0,0,0,0,0,"60,695",0,0
CA,"Kingbird B Solar, LLC",34.824206,-118.438547,0,0,0,0,0,0,0,"59,150",0,0
CA,Kings Beach,39.245833,-120.027222,0,274,0,0,0,0,0,0,0,0
CA,Kings River PH,36.888166,-119.158777,0,0,0,0,"134,174",0,0,0,0,0
CA,Kingsburg Cogen Facility,36.5397,-119.5794,0,0,"4,964",0,0,0,0,0,0,0
CA,Kingsburg Solar,36.505278,-119.540278,0,0,0,0,0,0,0,"7,037",0,0
CA,"Kingston Energy Storage, LLC",36.92157,-119.987066,,,,,,,,,,
CA,Kohls San Bernardino Solar Facility,34.094695,-117.266831,0,0,0,0,0,0,0,"1,014",0,0
CA,Kumeyaay Wind,32.705556,-116.3425,0,0,0,0,0,0,"155,655",0,0,0
CA,Kyocera America Project,32.819675,-117.140548,0,0,"11,518",0,0,0,0,0,0,0
CA,L-8 Solar Project,34.654347,-117.973103,0,0,0,0,0,0,0,"2,790",0,0
CA,La Grange,37.6697,-120.4436,0,0,0,0,"8,374",0,0,0,0,0
CA,La Joya Del Sol,36.678611,-119.7975,0,0,0,0,0,0,0,"3,111",0,0
CA,La Paloma Generating Plant,35.2956,-119.5919,0,0,"1,059,098",0,0,0,0,0,0,0
CA,Laguna Water Reclamation Facility,38.368889,-122.765833,0,0,"2,162",0,0,"11,759",0,0,0,0
CA,Lake,34.1772,-118.3147,0,0,"11,806",0,0,0,0,0,0,0
CA,Lake Hodges Hydroelectric Facility,33.058611,-117.119444,0,0,0,0,"-15,257",0,0,0,0,0
CA,Lake Mathews,33.8553,-117.4537,0,0,0,0,"24,337",0,0,0,0,0
CA,Lake Mendocino,39.197222,-123.185556,0,0,0,0,"5,928",0,0,0,0,0
CA,Lake Perris Solar,33.8361,-117.1297,,,,,,,,,,
CA,Lambie Energy Center,38.221577,-121.868333,0,0,"13,299",0,0,0,0,0,0,0
CA,Lancaster,34.743383,-117.972222,0,0,0,0,0,0,0,0,0,0
CA,Lancaster Baptist Church,34.695833,-118.058889,0,0,0,0,0,0,0,"2,052",0,0
CA,Lancaster Dry Farm Ranch B,34.716944,-118.289444,0,0,0,0,0,0,0,"12,892",0,0
CA,Lancaster Little Rock,34.599444,-117.932778,0,0,0,0,0,0,0,"13,013",0,0
CA,Lancaster Solar 1,34.715,-118.095,0,0,0,0,0,0,0,"3,527",0,0
CA,Lancaster Solar 2,34.710556,-118.166111,0,0,0,0,0,0,0,"3,596",0,0
CA,Lancaster WAD B,34.780192,-118.19333,0,0,0,0,0,0,0,"8,227",0,0
CA,Larkspur Energy Faciity,32.567041,-116.944197,0,0,"44,783",0,0,0,0,0,0,0
CA,Las Virgenes Municipal Water District,34.136111,-118.701944,0,0,0,0,0,0,0,"1,669",0,0
CA,LATTC South Campus Solar,34.033056,-118.269722,,,,,,,,,,
CA,Lavio Solar,38.194599,-122.663388,0,0,0,0,0,0,0,"2,009",0,0
CA,Lemoore 1,36.257938,-119.798139,0,0,0,0,0,0,0,"3,572",0,0
CA,Liberty HS Solar Project,35.364408,-119.127496,0,0,0,0,0,0,0,71,0,0
CA,Life Technologies - Pleasanton,37.643889,-121.884167,0,0,"7,543",0,0,0,0,0,0,0
CA,Life Technologies Carlsbad,33.137222,-117.286944,0,0,"7,045",0,0,0,0,0,0,0
CA,Lime Saddle,39.698755,-121.57096,0,0,0,0,"3,030",0,0,0,0,0
CA,Lincoln Landfill,38.838056,-121.341944,0,0,0,0,0,"24,717",0,0,0,0
CA,Lindberg FIeld Solar,32.729238,-117.207718,0,0,0,0,0,0,0,"3,253",0,0
CA,Lindberg Field Solar 2,32.729444,-117.205083,0,0,0,0,0,0,0,"1,462",0,0
CA,Linde Wilmington,33.78856,-118.229392,0,0,0,0,0,0,0,0,0,0
CA,Lindsay Solar,36.211944,-119.133889,0,0,0,0,0,0,0,"7,238",0,0
CA,Little Bear 3,36.716,-120.415,,,,,,,,,,
CA,Little Bear 4,36.716,-120.415,,,,,,,,,,
CA,Little Bear 5,36.716,-120.415,,,,,,,,,,
CA,"Little Bear Solar 1, LLC",36.716,-120.415,,,,,,,,,,
CA,"Little Bear Solar 2, LLC",36.716,-120.41,,,,,,,,,,
CA,Little Rock Pham Solar,34.600231,-117.94751,0,0,0,0,0,0,0,"8,522",0,0
CA,Live Oak Limited,35.4837,-119.0298,0,0,"22,188",0,0,0,0,0,0,0
CA,Lockheed Martin Sunnyvale,37.413056,-122.028056,0,0,"6,847",0,0,0,0,0,0,0
CA,Lodi,38.146571,-121.300541,0,0,"3,492",0,0,0,0,0,0,0
CA,Lodi Energy Center,38.088056,-121.3875,0,0,"1,406,540",0,0,0,0,0,0,0
CA,Loma Linda University Cogen,34.050391,-117.248417,0,0,"69,101",0,0,0,0,0,0,0
CA,Loma Rica Hydroelectric Powerhouse,39.223028,-120.99108,,,,,,,,,,
CA,Lone Valley Solar Park I LLC,34.398059,-116.865517,0,0,0,0,0,0,0,"24,116",0,0
CA,Lone Valley Solar Park II LLC,34.408333,-116.8625,0,0,0,0,0,0,0,"51,332",0,0
CA,Long Beach Generating Station,33.7641,-118.2248,0,0,"22,511",0,0,0,0,0,0,0
CA,"Longboat Solar, LLC",34.541,-117.061,0,0,0,0,0,0,0,"60,361",0,0
CA,Loon Lake,38.982697,-120.324503,0,0,0,0,"54,595",0,0,0,0,0
CA,Lopez Canyon,34.292645,-118.389774,,,,,,,,,,
CA,Los Angeles Harbor College,33.783102,-118.28493,0,0,0,0,0,0,0,"2,794",0,0
CA,Los Angeles Refinery Wilmington,33.7686,-118.2867,0,0,"150,969",0,0,0,0,0,0,"261,148"
CA,Los Esteros Critical Energy Facility,37.425,-121.9319,0,0,"356,431",0,0,0,0,0,0,0
CA,"Los Medanos Energy Center, LLC",38.030071,-121.873004,0,0,"3,274,740",0,0,0,0,0,0,0
CA,Lost Creek I,40.7576,-121.4145,0,0,0,0,"5,551",0,0,0,0,0
CA,Lost Hills Cogeneration Plant,35.666111,-119.766944,0,0,"36,954",0,0,0,0,0,0,0
CA,Lost Hills/Blackwell,35.62,-119.85,0,0,0,0,0,0,0,"90,251",0,0
CA,Lower Tule River,36.13568,-118.788868,0,0,0,0,-102,0,0,0,0,0
CA,Lundy,38.042729,-119.172015,0,0,0,0,"9,035",0,0,0,0,0
CA,Ma,34.695278,-118.0625,0,0,0,0,0,0,0,"4,343",0,0
CA,Maclay Solar Project,34.319722,-118.430833,0,0,0,0,0,0,0,"1,180",0,0
CA,"Madelyn Solar, LLC",34.768333,-117.323611,0,0,0,0,0,0,0,"2,903",0,0
CA,Madera 1 PV,37.056468,-120.167021,0,0,0,0,0,0,0,"2,861",0,0
CA,Madera Community Hospital,36.941111,-120.046667,0,0,0,0,0,0,0,"2,092",0,0
CA,Magnolia,34.178056,-118.315556,,,,,,,,,,
CA,Magnolia,34.1786,-118.3153,0,0,"1,531,144",0,0,0,0,0,0,0
CA,Malaga Power,36.6697,-119.7404,0,0,"27,660",0,0,0,0,0,0,0
CA,Malburg Generating Station,33.9986,-118.2219,0,0,"479,363",0,0,0,0,0,0,0
CA,Malech Solar Farm,37.228736,-121.738616,,,,,,,,,,
CA,Mammoth Pacific I,37.6451,-118.9143,0,0,0,0,0,0,0,0,"56,845",0
CA,Mammoth Pacific II,37.6464,-118.9092,0,0,0,0,0,0,0,0,"62,421",0
CA,Mammoth Pool,37.220302,-119.337983,0,0,0,0,"443,429",0,0,0,0,0
CA,Mandalay Generating Station,34.2067,-119.2511,0,0,30,0,0,0,0,0,0,0
CA,Manteca Land PV,37.84013,-121.216191,0,0,0,0,0,0,0,"1,895",0,0
CA,Manzana Wind LLC,34.9349,-118.4612,0,0,0,0,0,0,"513,851",0,0,0
CA,Margarita Energy Center,33.549444,-117.627777,,,,,,,,,,
CA,Mariani Packing Vacaville Solar,38.40008,-121.96366,0,0,0,0,0,0,0,"1,386",0,0
CA,"Maricopa West Solar PV, LLC",35.115278,-119.317778,0,0,0,0,0,0,0,"49,449",0,0
CA,Marin Clean Energy Solar One,37.945296,-122.377202,0,0,0,0,0,0,0,"20,236",0,0
CA,Marina Landfill Gas,36.7131,-121.7686,0,0,0,0,0,"23,515",0,0,0,0
CA,Mariposa Energy Project,37.789167,-121.601944,0,0,"112,210",0,0,0,0,0,0,0
CA,Marsh Landing Generating Station,38.016944,-121.765,0,0,"219,407",0,0,0,0,0,0,0
CA,Martinez Refining,38.0169,-122.1117,0,0,"774,885",0,0,0,0,0,0,"35,953"
CA,Martinez Sulfuric Acid Regeneration Plt,38.0314,-122.1139,0,0,0,0,0,0,0,0,0,"10,550"
CA,"Maverick Solar, LLC",33.7,-115.38,,,,,,,,,,
CA,Maxim,37.405689,-121.949416,0,0,"7,215",0,0,0,0,0,0,0
CA,MCAGCC Cogen Plant,34.237222,-116.054167,0,0,"81,816",0,0,0,0,0,0,0
CA,McClellan (CA),38.652731,-121.393336,0,0,"7,088",0,0,0,0,0,0,0
CA,McClure,37.62936,-120.93139,0,"1,520","1,438",0,0,0,0,0,0,0
CA,McCoy Solar Energy Project,33.694722,-114.739722,0,0,0,0,0,0,0,"700,907",0,0
CA,McGrath Generating Station,34.205556,-119.246944,0,0,"23,962",0,0,0,0,0,0,0
CA,McKittrick Cogen,35.3161,-119.6597,0,0,"79,176",0,0,0,0,0,0,0
CA,McKittrick Limited,35.319503,-119.661992,0,0,"21,742",0,0,0,0,0,0,0
CA,McSwain,37.522065,-120.31009,0,0,0,0,"29,383",0,0,0,0,0
CA,Merced 1 PV,36.989475,-120.878081,0,0,0,0,0,0,0,"4,336",0,0
CA,Merced Falls,37.52301,-120.329905,0,0,0,0,"9,677",0,0,0,0,0
CA,Merced Solar LLC,37.267778,-120.484444,0,0,0,0,0,0,0,"2,731",0,0
CA,Meridian Vineyards,35.670278,-120.566944,0,0,0,0,0,0,0,"1,663",0,0
CA,Mesa Wind Power Corp,33.9461,-116.6769,0,0,0,0,0,0,"5,055",0,0,0
CA,Mesquite Lake Energy Park Plant 2,32.903826,-115.511949,,,,,,,,,,
CA,Mesquite Lake Water & Power Plant 1,32.906569,-115.513747,,,,,,,,,,
CA,Metcalf Energy Center,37.2207,-121.7457,0,0,"2,079,832",0,0,0,0,0,0,0
CA,Metro Support Services Center Solar,34.0578,-118.229722,0,0,0,0,0,0,0,"1,489",0,0
CA,Micro Santa Clara,37.378422,-121.899969,0,0,"5,368",0,0,0,0,0,0,0
CA,Middle Fork,39.024801,-120.596383,0,0,0,0,"451,504",0,0,0,0,0
CA,Middle Gorge,37.51,-118.569167,0,0,0,0,"75,380",0,0,0,0,0
CA,Mid-Set Cogeneration,35.19456,-119.57097,0,0,0,0,0,0,0,0,0,0
CA,Midway Peaking,36.654114,-120.579727,0,0,"49,354",0,0,0,0,0,0,0
CA,Midway Solar Farm 1,33.176627,-115.572788,0,0,0,0,0,0,0,"140,843",0,0
CA,Midway Solar Farm II,33.162056,-115.531694,0,0,0,0,0,0,0,"86,782",0,0
CA,Midway Solar Farm III,33.154761,-115.544918,0,0,0,0,0,0,0,"11,888",0,0
CA,Midway Sunset Cogen,35.2269,-119.6294,0,0,"850,069",0,0,0,0,0,0,0
CA,Mill Creek 3,34.088019,-117.039539,0,0,0,0,"7,573",0,0,0,0,0
CA,MillerCoors Irwindale Brewery,34.121667,-117.938333,0,0,"6,839",0,0,"4,680",0,"4,951",0,0
CA,Millikan BESS,33.691,-117.833,0,0,0,0,0,0,0,0,0,-350
CA,Mira Loma,34.013056,-117.5375,0,0,0,0,0,0,0,"3,280",0,0
CA,Mira Loma Energy Storage Facility,34.006125,-117.560934,0,0,0,0,0,0,0,0,0,0
CA,Mira Loma Generating Station,34.0053,-117.5604,0,0,"24,008",0,0,0,0,0,0,0
CA,Miramar,32.8761,-117.1664,,,,,,,,,,
CA,Miramar Energy Facility,32.8769,-117.166389,0,0,"92,448",0,0,0,0,0,0,0
CA,Mission College Blvd. Fuel Cell,37.38633,-121.96238,0,0,0,0,0,0,0,0,0,0
CA,Mission Rock Energy Center,34.30873,-119.1067,,,,,,,,,,
CA,Mission Solar LLC,37.267778,-120.4825,0,0,0,0,0,0,0,"2,731",0,0
CA,"Mitchell Solar, LLC",34.765,-117.323611,0,0,0,0,0,0,0,"3,943",0,0
CA,MM Lopez Energy,34.2925,-118.389444,0,0,0,0,0,"20,263",0,0,0,0
CA,MM San Diego-Miramar,32.844845,-117.162747,0,0,0,0,0,"50,835",0,0,0,0
CA,MM San Diego-North City,32.8817,-117.1958,0,0,0,0,0,"28,974",0,0,0,0
CA,MM Tulare Energy,36.388,-119.394,0,0,0,0,0,"6,456",0,0,0,0
CA,MM West Covina,34.033206,-117.906129,0,0,0,0,0,"44,143",0,0,0,0
CA,MM Yolo Power,38.596283,-121.687518,0,0,0,0,0,"18,151",0,0,0,0
CA,Mobile GT,40.741389,-124.210278,,,,,,,,,,
CA,Moccasin,37.809388,-120.299254,0,0,0,0,"330,257",0,0,0,0,0
CA,Moccasin Low Head Hydro Project,37.816447,-120.312033,0,0,0,0,0,0,0,0,0,0
CA,Mojave 16,35.045,-118.2642,0,0,0,0,0,0,"62,516",0,0,0
CA,Mojave 18,35.046,-118.2757,0,0,0,0,0,0,"58,346",0,0,0
CA,Mojave 3,35.068,-118.2898,0,0,0,0,0,0,"59,211",0,0,0
CA,Mojave 4,35.0506,-118.2572,0,0,0,0,0,0,"62,891",0,0,0
CA,Mojave 5,35.076,-118.2487,0,0,0,0,0,0,"55,605",0,0,0
CA,Mojave Siphon,34.307444,-117.323548,0,0,0,0,"42,807",0,0,0,0,0
CA,Mojave Solar Project,35.017717,-117.339144,0,0,0,0,0,0,0,"605,180",0,0
CA,Monterey One Water,36.7056,-121.7714,0,0,"3,526",0,0,"5,180",0,0,0,0
CA,Monterey Regional Water Pollution Contro,36.721111,-121.787778,0,0,0,0,0,0,0,"1,390",0,0
CA,Montezuma Wind II,38.116667,-121.821944,0,0,0,0,0,0,"220,285",0,0,0
CA,Montgomery Creek Hydro,40.846806,-121.956446,0,0,0,0,"6,352",0,0,0,0,0
CA,Monticello Dam,38.513056,-122.104444,0,0,0,0,"32,913",0,0,0,0,0
CA,Morelos del Sol,35.731362,-119.818712,0,0,0,0,0,0,0,"38,754",0,0
CA,Morgan Lancaster 1,34.6608,-118.0836,0,0,0,0,0,0,0,"3,813",0,0
CA,Moss Landing,36.804837,-121.782241,0,0,"4,178,782",0,0,0,0,0,0,0
CA,Mount Signal Solar 2,32.6685,-115.6292,,,,,,,,,,
CA,Mount Signal Solar Farm V,32.678805,-115.56721,0,0,0,0,0,0,0,"79,767",0,0
CA,Mountain View I&2,33.9211,-116.5642,0,0,0,0,0,0,"197,485",0,0,0
CA,Mountain View III,33.9141,-116.5914,0,0,0,0,0,0,"68,955",0,0,0
CA,Mountain View IV,33.8816,-116.5527,0,0,0,0,0,0,"171,876",0,0,0
CA,Mountainview Generating Station,34.0818,-117.2418,0,0,"2,091,875",0,0,0,0,0,0,0
CA,Mt Poso Cogeneration,35.576323,-119.006245,0,0,"2,477",0,0,"252,577",0,0,0,0
CA,Muck Valley Hydroelectric,40.976389,-121.255833,0,0,0,0,"47,996",0,0,0,0,0
CA,Municipal Cogen Plant,33.8247,-116.5106,0,0,"4,410",0,0,0,0,0,0,0
CA,Munro Valley Solar,36.2647,-117.9955,0,0,0,0,0,0,0,"10,596",0,0
CA,Murphys,38.147093,-120.446396,0,0,0,0,"14,187",0,0,0,0,0
CA,Mustang Hills LLC,35.030855,-118.293188,0,0,0,0,0,0,"303,482",0,0,0
CA,Mustang Two,36.216806,-119.896389,,,,,,,,,,
CA,Nacimiento Hydro Project,35.798576,-120.883331,0,0,0,0,"8,107",0,0,0,0,0
CA,Narrows 2,39.238996,-121.270409,0,0,0,0,"191,540",0,0,0,0,0
CA,Narrows PH,39.2364,-121.271741,0,0,0,0,"22,883",0,0,0,0,0
CA,National Raisin,36.624512,-119.673088,0,0,0,0,0,0,0,"5,220",0,0
CA,Navajo Solar Power Generation Station 1 LLC,34.551111,-117.191111,0,0,0,0,0,0,0,"3,965",0,0
CA,Naval Air Weapons Station China Lake,35.68771,-117.68137,0,0,0,0,0,0,0,"26,825",0,0
CA,Naval Hospital Medical Center,32.7261,-117.1464,0,0,"23,370",0,0,0,0,0,0,0
CA,Naval Station,32.681667,-117.120277,,,,,,,,,,
CA,Naval Station Energy Facility,32.679269,-117.122447,0,0,"42,163",0,0,0,0,0,0,0
CA,Naval Training Center,32.735556,-117.208333,,,,,,,,,,
CA,NCPA Combustion Turbine Project #2,38.088138,-121.386944,0,0,"11,838",0,0,0,0,0,0,0
CA,Neenach Solar Center,34.812791,-118.60117,,,,,,,,,,
CA,Nelson Creek,41.028893,-121.892351,0,0,0,0,986,0,0,0,0,0
CA,New Hogan Power Plant,38.149582,-120.814942,0,0,0,0,"6,849",0,0,0,0,0
CA,New Melones,37.946927,-120.528211,0,0,0,0,"472,100",0,0,0,0,0
CA,Newberry Solar 1 LLC,34.853581,-116.683108,0,0,0,0,0,0,0,"2,974",0,0
CA,Newcastle,38.835182,-121.092982,0,0,0,0,"10,963",0,0,0,0,0
CA,New-Indy Ontario Mill,34.045361,-117.540193,0,0,"227,147",0,0,0,0,0,0,0
CA,NextEra Westside PV,36.381775,-120.134486,0,0,0,0,0,0,0,"53,757",0,0
CA,Nickel 1 Solar Facility,35.647295,-119.716512,0,0,0,0,0,0,0,"2,865",0,0
CA,Nicolis Solar PV Plant,35.835833,-119.056111,0,0,0,0,0,0,0,"49,884",0,0
CA,Niland Gas Turbine Plant,33.238842,-115.504456,0,0,"70,203",0,0,0,0,0,0,0
CA,Nimbus,38.63735,-121.220198,0,0,0,0,"59,462",0,0,0,0,0
CA,Nordhoff Place,34.236667,-118.565833,0,0,0,0,0,0,0,"1,271",0,0
CA,North Bay Solar 1,38.300556,-121.966389,0,0,0,0,0,0,0,"2,003",0,0
CA,North Brawley Geothermal Plant,33.0139,-115.5439,0,0,0,0,0,0,0,0,"55,668",0
CA,North City Cogeneration Facility,32.877822,-117.197788,0,0,0,0,0,"6,322",0,0,0,0
CA,North Fork Community Power,37.231531,-119.49425,,,,,,,,,,
CA,North Hollywood,34.194444,-118.39028,0,0,0,0,0,0,0,0,0,0
CA,North Island,32.705,-117.190277,,,,,,,,,,
CA,North Island Energy Facility,32.70516,-117.189665,0,0,"32,905",0,0,0,0,0,0,0
CA,North Lancaster Ranch,34.719538,-118.31301,0,0,0,0,0,0,0,"38,558",0,0
CA,North Midway Cogen,35.2761,-119.5986,,,,,,,,,,
CA,North Palm Springs 1A,33.924167,-116.593333,0,0,0,0,0,0,0,"2,868",0,0
CA,North Palm Springs 4A,33.909722,-116.5625,0,0,0,0,0,0,0,"4,120",0,0
CA,North Rosamond Solar LLC,34.862,-118.38,,,,,,,,,,
CA,North Sky River Energy LLC,35.347778,-118.186389,0,0,0,0,0,0,"455,093",0,0,0
CA,North Star Solar,36.73,-120.41,0,0,0,0,0,0,0,"155,621",0,0
CA,Nove Power Plant,37.9676,-122.382,0,0,0,0,0,619,0,0,0,0
CA,NRG Energy San Diego,32.7149,-117.1689,0,0,"1,907",0,0,0,0,0,0,0
CA,NRG Solar Blythe LLC,33.5917,-114.7444,0,0,0,0,0,0,0,"42,291",0,0
CA,NRG Solar Borrego I,33.298889,-116.35083,0,0,0,0,0,0,0,"68,512",0,0
CA,NRG Solar Oasis LLC,34.648889,-118.076667,0,0,0,0,0,0,0,"57,119",0,0
CA,NTC/MCRD Energy Facility,32.7353,-117.2083,0,0,"20,681",0,0,0,0,0,0,0
CA,Nunn,34.509167,-117.154444,0,0,0,0,0,0,0,"2,635",0,0
CA,Oak Creek Energy Systems I,35.043889,-118.276388,0,0,0,0,0,0,"64,995",0,0,0
CA,Oak Flat,40.07531,-121.16143,0,0,0,0,"2,363",0,0,0,0,0
CA,Oakley Generating Station,38.01,-121.7475,,,,,,,,,,
CA,Oakley Solar Project,38.001667,-121.747778,0,0,0,0,0,0,0,"2,272",0,0
CA,Oasis Wind,35.06094,-118.292406,0,0,0,0,0,0,"171,892",0,0,0
CA,Occidental College Solar Project,34.1283,-118.206903,0,0,0,0,0,0,0,"1,833",0,0
CA,Ocotillo Express LLC,32.752778,-116.044722,0,0,0,0,0,0,"575,875",0,0,0
CA,Olinda Landfill Gas Recovery Plant,33.9056,-117.8439,,,,,,,,,,
CA,Olive,34.1764,-118.3147,0,0,0,0,0,0,0,0,0,0
CA,Olive View Medical Center,34.326242,-118.44477,0,0,"15,221",0,0,0,0,0,0,0
CA,OLS Energy Chino,33.989626,-117.680911,0,0,"24,709",0,0,0,0,0,0,0
CA,Olsen,40.670536,-121.890645,0,0,0,0,"6,106",0,0,0,0,0
CA,Oltmans SCE at Champagne,34.043889,-117.531111,0,0,0,0,0,0,0,"1,887",0,0
CA,Oltmans SCE at Jurupa,34.05,-117.596111,0,0,0,0,0,0,0,"3,058",0,0
CA,One Market Plaza,37.793333,-122.394167,0,0,"2,496",0,0,0,0,0,0,0
CA,One Ten Partners PV,34.615622,-117.936594,0,0,0,0,0,0,0,"6,130",0,0
CA,ONeill,37.098671,-121.047718,0,0,0,0,"-61,489",0,0,0,0,0
CA,Orange County Energy Storage 2,33.715536,-117.854314,,,,,,,,,,
CA,Orange County Energy Storage 3,33.714896,-117.85431,,,,,,,,,,
CA,Orange Grove Project,33.3594,-117.1114,0,0,"33,879",0,0,0,0,0,0,0
CA,Ord Mountain Solar,34.558411,-116.935434,,,,,,,,,,
CA,Orion Solar I,35.150694,-118.875,0,0,0,0,0,0,0,"25,633",0,0
CA,Orion Solar II,35.150694,-118.875278,0,0,0,0,0,0,0,"17,577",0,0
CA,Ormesa I,32.8156,-115.2568,0,0,0,0,0,0,0,0,"83,024",0
CA,Ormesa IE,32.8041,-115.2475,,,,,,,,,,
CA,Ormesa IH,32.7842,-115.2475,,,,,,,,,,
CA,Ormesa II,32.7881,-115.2481,0,0,0,0,0,0,0,0,"87,176",0
CA,Ormond Beach Generating Station,34.1292,-119.1689,0,0,"186,015",0,0,0,0,0,0,0
CA,ORNI 34 LLC,34.407284,-119.511582,,,,,,,,,,
CA,Oro Loma,36.876847,-120.667608,0,0,0,0,0,0,0,"52,717",0,0
CA,Oroville Cogeneration LP,39.492,-121.5628,0,0,156,0,0,0,0,0,0,0
CA,Ortega Highway Energy Storage,33.562061,-117.543777,0,0,0,0,0,0,0,0,0,-4
CA,"Otay Landfill Gas, LLC",32.5983,-117.0178,0,0,0,0,0,"35,881",0,0,0,0
CA,"Otay Mesa Energy Center, LLC",32.581481,-116.914969,0,0,"493,151",0,0,0,0,0,0,0
CA,Otoe Solar Power Generation Station 1 LL,34.545,-117.191944,0,0,0,0,0,0,0,"3,623",0,0
CA,Owens Valley Solar Project 11,36.275144,-118.012151,0,0,0,0,0,0,0,"2,984",0,0
CA,Oxbow (CA),39.003372,-120.746651,0,0,0,0,"26,068",0,0,0,0,0
CA,Oxnard,34.196,-119.1667,0,0,"557,802",0,0,0,0,0,0,0
CA,Oxnard Paper Mill,34.1414,-119.1831,0,0,"189,038",0,0,0,0,0,0,0
CA,Oxnard Wastewater Treatment Plant,34.140501,-119.184529,0,0,"1,145",0,0,"5,006",0,0,0,0
CA,P Plant,32.894722,-117.198056,0,0,"37,962",0,0,0,0,0,0,0
CA,Pacific Cruise Ship Terminals Berth 93,33.7331,-118.27722,0,0,0,0,0,0,0,26,0,0
CA,Pacific Ethanol Madera Solar Array,36.916111,-119.97138,0,0,0,0,0,0,0,"1,973",0,0
CA,Pacific Ethanol Stockton Cogen Plant,37.9418,-121.3383,0,0,"2,214",0,0,0,0,0,0,0
CA,Pacific Rim Dairy Digester,36.033056,-119.51,0,0,0,0,0,"2,262",0,0,0,0
CA,Pacific Union College BESS,38.570028,-122.444028,,,,,,,,,,
CA,Pacific Wind LLC,34.891389,-118.4325,0,0,0,0,0,0,"312,028",0,0,0
CA,Pacific-Ultrapower Chinese Station,37.874056,-120.477556,0,0,0,0,0,"140,508",0,0,0,0
CA,Painted Hills Wind Park,33.9369,-116.6183,0,0,0,0,0,0,"29,908",0,0,0
CA,Painter Energy Storage,34.41,-119.515,,,,,,,,,,
CA,Pala Energy Storage Yard,33.35651,-117.113599,0,0,0,0,0,0,0,0,0,-7
CA,Palo Verde College,33.661667,-114.651667,0,0,0,0,0,0,0,"2,150",0,0
CA,Palomar Energy Center,33.1197,-117.117778,0,0,"1,925,066",0,0,0,0,0,0,0
